Property Address,Property City,Property Zip Code,Sale Date,Sale_Price,PropertyType,Cap_Rate,Bldg SF,Floor Area Ratio,Building Class,Building Condition,BuildingMaterials,Year Built,Number Of Units,Longitude,Latitude
700 Lincoln Village Cir,Larkspur,94939,7/25/2007,94500000,Multi-Family,4.28,293198,0.397103239,B,Other,WoodFrame,1978,342,-122.5072564,37.9474726
1 Amberstone Ln,San Ramon,94582,5/4/2007,64300000,Multi-Family,4,237894,0.603457985,B,Other,WoodFrame,2004,250,-121.906034,37.765747
5004 Hartnett Ave,Richmond,94804,7/6/2007,48443500,Multi-Family,5.5,408500,0.38719535,B,Good,Unknown,1968,378,-122.324281,37.9169489
7800 El Camino Real,Colma,94014,9/20/2007,44000000,Multi-Family,4.83,221000,2.402226135,A,Other,ReinforcedConcrete,2005,153,-122.4644664,37.6847983
2795 San Leandro Blvd,San Leandro,94578,8/2/2007,28458000,Multi-Family,4.5,133974,0.616357815,C,Other,Masonry,1974,186,-122.143928,37.715303
448 Toyon Ave,San Jose,95127,4/17/2007,25200000,Multi-Family,4.9,163780,0.576491211,C,Other,WoodFrame,1986,144,-121.8271285,37.3828324
707 Leahy St,Redwood City,94061,4/3/2007,23000000,Multi-Family,4.43,93000,1.016660108,A,Other,WoodFrame,1973,110,-122.215375,37.469995
2020 Southwest Expy,San Jose,95126,8/30/2007,19500000,Multi-Family,4.89,94752,0.587736873,C,Other,WoodFrame,1968,130,-121.927472,37.299837
701 Taylor St,San Francisco,94108,7/23/2007,13500000,Multi-Family,4,34589,4.179434509,B,Other,Masonry,1918,60,-122.412263,37.789013
1101 N Camino Alto,Vallejo,94589,1/11/2007,12300000,Multi-Family,3.5,78000,0.320328542,B,Other,WoodFrame,1986,80,-122.245435,38.129046
1212 Whipple Ave,Redwood City,94062,8/30/2007,12025000,Multi-Family,4.5,97000,2.100794837,C,Other,WoodFrame,1962,114,-122.2422012,37.4889875
1531-1611 Adelaide St,Concord,94520,8/9/2007,12000000,Multi-Family,5.02,109876,1.083974587,C,Other,WoodFrame,1963,96,-122.0404288,37.9693087
565 Arastradero Rd,Palo Alto,94306,8/17/2007,11050000,Multi-Family,5.65,42267,0.866357841,C,Other,WoodFrame,1964,44,-122.124039,37.408642
2200 Curtner Ave,San Jose,95124,6/13/2007,10200000,Multi-Family,4.46,58958,0.656116805,B,Other,Unknown,1964,89,-121.938958,37.271712
9200 Alcosta Blvd,San Ramon,94583,2/20/2007,10200000,Multi-Family,4.51,42100,0.449738276,B,Other,WoodFrame,1969,60,-121.928779,37.73068
2081 Whitman Way,San Bruno,94066,9/11/2007,9125000,Multi-Family,4.9,44595,0.799824234,C,Other,WoodFrame,1964,49,-122.4269221,37.6179326
4401 Central Ave,Fremont,94536,2/20/2007,8450000,Multi-Family,5.47,51160,0.559272377,C,Other,WoodFrame,1965,62,-122.008428,37.551337
1654-1660 Hollenbeck Ave,Sunnyvale,94087,9/11/2007,7850000,Multi-Family,5.5,37216,0.625952401,C,Other,WoodFrame,1964,40,-122.0407079,37.3392492
947 Bush St,San Francisco,94109,7/24/2007,7500000,Multi-Family,6.88,31046,4.153866738,B,Other,Unknown,1910,53,-122.4127061,37.7893962
1035 Pine St,San Francisco,94109,5/3/2007,7500000,Multi-Family,3.74,34300,5.790006752,B,Other,Masonry,1924,38,-122.4129833,37.7903625
775 Geary St,San Francisco,94109,5/3/2007,7500000,Multi-Family,5.6,30660,4.630720435,B,Other,Unknown,1923,36,-122.4159901,37.7861292
1441 Casa Buena Dr,Corte Madera,94925,8/29/2007,7400000,Multi-Family,4.6,30480,0.201071325,C,Other,WoodFrame,1961,32,-122.512198,37.917296
1100-1128 Polk St,San Francisco,94109,2/15/2007,7080000,Multi-Family,4.97,33725,3.519252844,C,Other,Masonry,1917,55,-122.419798,37.787131
5322 D'Avilla Way,El Sobrante,94803,2/7/2007,6750000,Multi-Family,5.05,40774,0.239397836,C,Other,Masonry,1987,44,-122.284532,37.961724
1240 Alameda,Belmont,94002,2/28/2007,6685000,Multi-Family,5.5,53364,1.401218359,C,Other,Unknown,1964,40,-122.2911047,37.5077039
2775 Market St,San Francisco,94114,5/3/2007,6400000,Multi-Family,3.51,20550,2.347230154,C,Other,Unknown,1962,26,-122.4390647,37.7613257
3649 Market St,San Francisco,94131,2/2/2007,6350000,Multi-Family,4.31,23914,1.211142061,C,Other,WoodFrame,1964,33,-122.441146,37.7552792
30-40 Newell Rd,East Palo Alto,94303,9/13/2007,6250000,Multi-Family,5.33,33612,0.707278581,Unknown,Other,WoodFrame,1970,40,-122.1363218,37.4557323
14365 Bancroft Ave,San Leandro,94578,1/28/2007,6180000,Multi-Family,5.9,33550,0.605038683,C,Other,Masonry,1960,62,-122.136376,37.711692
315 Wayne Pl,Oakland,94606,8/15/2007,6150000,Multi-Family,5,40041,1.877567289,C,Other,WoodFrame,1966,46,-122.2513806,37.8002736
1050 Post St,San Francisco,94109,7/23/2007,6000000,Multi-Family,4.2,20840,3.554494286,B,Other,Masonry,1911,40,-122.4192474,37.7871893
1601-1621 Pine St,Concord,94520,8/9/2007,6000000,Multi-Family,5.1,36450,0.734020702,C,Other,WoodFrame,1986,43,-122.044296,37.968665
3843 Carol Ave,Fremont,94538,5/16/2007,5994047,Multi-Family,5.29,35764,0.528271787,C,Other,WoodFrame,1963,46,-121.9564317,37.5282727
211 Canal St,San Rafael,94901,8/15/2007,5850000,Multi-Family,6.62,28145,0.771032518,C,Other,Unknown,1962,34,-122.50322,37.966583
1601 Santa Clara St,Santa Clara,95050,8/31/2007,5750000,Multi-Family,4.17,26267,0.603007346,C,Other,WoodFrame,1986,36,-121.950517,37.344622
248 Pamela Dr,Mountain View,94040,5/11/2007,5750000,Multi-Family,4.96,27724,0.757693359,C,Other,WoodFrame,1958,38,-122.076176,37.380467
1300-1326 Grant Ave,San Francisco,94133,4/23/2007,5680000,Multi-Family,4.32,15800,1.259465923,C,Other,WoodFrame,1907,13,-122.407141,37.7991124
41277 Roberts Ave,Fremont,94538,2/28/2007,5450000,Multi-Family,5.25,30997,0.508289195,C,Other,WoodFrame,1967,45,-121.956621,37.530114
3830 Divisadero St,San Francisco,94123,5/3/2007,5350000,Multi-Family,4.39,16050,2.377425567,B,Other,WoodFrame,1936,12,-122.443535,37.805098
2400 Van Ness Ave,San Francisco,94109,5/8/2007,5225000,Multi-Family,4.13,20700,3.683929525,B,Other,WoodFrame,1907,28,-122.4235231,37.7978241
1489 Fruitdale Ave,San Jose,95128,5/25/2007,5050000,Multi-Family,6.84,34375,0.652190411,C,Other,WoodFrame,1964,40,-121.917638,37.311173
2121 7th St,Berkeley,94710,1/10/2007,5000000,Multi-Family,7.57,42421,1.116812342,C,Other,WoodFrame,1967,48,-122.295681,37.8660345
3436 Pierce St,San Francisco,94123,5/3/2007,4575000,Multi-Family,3.41,10483,2.092832901,B,Other,WoodFrame,1923,12,-122.439534,37.801973
1886 McAllister St,San Francisco,94115,5/11/2007,4500000,Multi-Family,4.2,12900,2.598187311,C,Other,WoodFrame,1902,18,-122.4430954,37.7769866
163 Merrydale Ave,San Rafael,94903,3/1/2007,4500000,Multi-Family,4.93,17800,0.51726142,C,Other,WoodFrame,1998,19,-122.535511,37.995621
2845 Pierce St,San Francisco,94123,4/23/2007,4350000,Multi-Family,3.62,11790,2.131236443,C,Other,Masonry,1924,12,-122.4389509,37.7963398
942 Antoinette Ln,South San Francisco,94080,7/18/2007,4090000,Multi-Family,4.8,23560,1.095762988,C,Good,Unknown,1965,24,-122.433816,37.656717
600 Oak St,San Francisco,94117,7/23/2007,3925000,Multi-Family,4.58,11520,2.299860252,C,Other,WoodFrame,1963,18,-122.4294308,37.7743998
138 Monte Cresta Ave,Oakland,94611,5/21/2007,3900000,Multi-Family,4.31,27948,1.944343954,C,Other,WoodFrame,1929,30,-122.249725,37.824335
3520 Brook St,Lafayette,94549,5/16/2007,3900000,Multi-Family,4.16,22929,0.641927266,C,Other,WoodFrame,1962,26,-122.118717,37.888603
406 Van Buren Ave,Oakland,94610,1/9/2007,3875000,Multi-Family,4.38,25851,2.067914567,C,Other,WoodFrame,1959,30,-122.253267,37.810678
439 S 4th St,San Jose,95112,5/31/2007,3650000,Multi-Family,11.34,20557,1.2110162,C,Other,WoodFrame,1965,30,-121.882668,37.330732
1622-1624 Harrison St,Oakland,94612,1/30/2007,3560000,Multi-Family,5.57,20630,2.645889445,C,Other,WoodFrame,1909,35,-122.2658477,37.8048122
16000 Mateo St,San Leandro,94578,8/14/2007,3550000,Multi-Family,7.64,23170,0.59234073,B,Other,WoodFrame,1965,26,-122.11718,37.700208
681 Cedar St,San Carlos,94070,7/10/2007,3500000,Multi-Family,4.8,16033,1.092240616,C,Other,ReinforcedConcrete,1970,14,-122.2633889,37.5028031
421 Richmond Dr,Millbrae,94030,3/26/2007,3500000,Multi-Family,4.46,17724,1.181442474,C,Other,ReinforcedConcrete,1970,16,-122.401357,37.6007223
1580 Madison St,Oakland,94612,5/23/2007,3500000,Multi-Family,5.3,18975,1.355357143,B,Other,Masonry,1907,37,-122.262337,37.80362
1418 Gordon St,Redwood City,94061,2/28/2007,3450000,Multi-Family,5,33954,1.563043778,C,Other,WoodFrame,1964,14,-122.230359,37.46819
2541 California St,San Francisco,94115,4/19/2007,3345000,Multi-Family,4.56,13686,2.895895049,C,Other,WoodFrame,1900,8,-122.4361919,37.7883688
200 Coggins Dr,Pleasant Hill,94523,4/30/2007,3330000,Multi-Family,4.45,31080,0.62044597,C,Other,Unknown,1963,21,-122.0571539,37.932976
445 Encinal Ave,Menlo Park,94025,8/17/2007,3300000,Multi-Family,4.43,14562,0.879772837,C,Other,WoodFrame,1959,13,-122.189038,37.4585174
29 Clinton St,Redwood City,94062,8/24/2007,3227000,Multi-Family,3.99,19208,2.111001209,C,Other,Unknown,1930,15,-122.241448,37.488041
1060 Pine St,San Francisco,94109,3/27/2007,3225000,Multi-Family,4.48,9329,1.810401708,B,Other,WoodFrame,1909,12,-122.4133146,37.7907582
2341 Valley St,Oakland,94612,7/25/2007,3193000,Multi-Family,6.46,21140,1.315249176,C,Other,Masonry,1910,41,-122.2677383,37.8133325
2533 Hillegass Ave,Berkeley,94704,5/9/2007,3180000,Multi-Family,5.5,16482,2.067745578,C,Other,Unknown,1974,18,-122.255957,37.864239
662 Garland Ave,Sunnyvale,94086,2/27/2007,3175000,Multi-Family,4.92,15506,0.508543505,C,Other,WoodFrame,1959,20,-122.0221883,37.3640672
346 Hanover Ave,Oakland,94606,7/27/2007,3150000,Multi-Family,5.49,35172,3.082018927,C,Other,WoodFrame,1965,22,-122.250396,37.802512
1220 Irwin St,San Rafael,94901,6/19/2007,3068500,Multi-Family,6,19521,1.183090909,C,Other,WoodFrame,1960,16,-122.519694,37.974369
1649-1657 Washington St,San Francisco,94109,3/16/2007,3050000,Multi-Family,4.34,9780,1.915768854,B,Other,WoodFrame,1908,7,-122.4205451,37.7931874
630 Corbett Ave,San Francisco,94114,5/1/2007,3050000,Multi-Family,3.7,10803,2.787151703,C,Good,WoodFrame,1960,10,-122.4436565,37.7566938
980-990 Alice Ln,Menlo Park,94025,4/27/2007,2950000,Multi-Family,3,6726,0.328530259,C,Other,WoodFrame,1953,8,-122.182497,37.445487
2426-2430 California St,San Francisco,94115,4/27/2007,2780000,Multi-Family,4.94,6290,1.900302115,C,Other,WoodFrame,1912,4,-122.4344899,37.7890895
2501 Rose Walk,Berkeley,94708,3/9/2007,2720000,Multi-Family,3,9571,0.477666317,B,Other,WoodFrame,1925,9,-122.261581,37.883278
1555 Madison St,Oakland,94612,3/28/2007,2650000,Multi-Family,5.96,18234,1.395316804,C,Other,ReinforcedConcrete,1957,27,-122.2633196,37.8033376
1160 Pine St,San Francisco,94109,5/3/2007,2650000,Multi-Family,3.6,12261,2.38540856,B,Other,WoodFrame,1913,15,-122.4150117,37.7905893
1509 Hearst Ave,Berkeley,94703,8/7/2007,2630000,Multi-Family,5.17,13140,1.31163905,C,Other,WoodFrame,1968,15,-122.281828,37.872416
400 Orange St,Oakland,94610,8/30/2007,2600000,Multi-Family,5.48,14820,1.415337599,C,Other,WoodFrame,1960,18,-122.2546112,37.8167141
3189 Cadillac Dr,San Jose,95117,3/29/2007,2555000,Multi-Family,7.3,14000,0.783918472,C,Other,WoodFrame,1958,20,-121.9525547,37.2971536
2945 McClure St,Oakland,94609,7/26/2007,2550000,Multi-Family,4,16192,1.616290677,C,Other,Masonry,1963,24,-122.2664845,37.8188485
427 34th Ave,San Francisco,94121,8/31/2007,2500000,Multi-Family,4.19,8282,1.358150213,C,Other,WoodFrame,1960,8,-122.4947989,37.7809779
239-243 Union St,San Rafael,94901,7/19/2007,2426000,Multi-Family,5.35,8800,0.577238439,C,Other,Unknown,1964,12,-122.5147,37.974782
460 S 4th St,San Jose,95112,1/24/2007,2400000,Multi-Family,7.52,13818,1.415633644,C,Other,WoodFrame,1964,28,-121.881856,37.330771
1601 Primrose Ln,Pinole,94564,6/27/2007,2375000,Multi-Family,5.36,15570,0.762151843,C,Other,WoodFrame,1974,15,-122.299052,38.006453
2141 Clement St,San Francisco,94121,9/25/2007,2350000,Multi-Family,7.98,7226,1.508244625,C,Other,WoodFrame,1964,10,-122.482305,37.781919
675 Cole St,San Francisco,94117,3/26/2007,2311000,Multi-Family,4.09,6085,1.455393447,C,Other,WoodFrame,1961,10,-122.4508495,37.7687113
766 Chestnut St,San Carlos,94070,8/17/2007,2300000,Multi-Family,4.3,8180,0.601913171,C,Other,WoodFrame,1957,10,-122.261829,37.502096
257 Poplar Ave,Hayward,94541,2/23/2007,2300000,Multi-Family,5.39,17660,0.72397819,C,Other,WoodFrame,1974,12,-122.099712,37.67125
1539 Encinal Ave,Alameda,94501,2/14/2007,2298000,Multi-Family,6.15,10602,0.904839123,C,Other,WoodFrame,1912,12,-122.259925,37.769632
1725-1727 San Carlos Ave,San Carlos,94070,4/26/2007,2275000,Multi-Family,4.2,11706,1.059270654,C,Other,WoodFrame,1956,10,-122.265883,37.50251
2842-2856 Joseph Ave,San Jose,95124,6/27/2007,2250000,Multi-Family,5.44,10304,0.566184955,C,Other,WoodFrame,1963,16,-121.939329,37.270359
3645 S Bascom Ave,Campbell,95008,3/27/2007,2150000,Multi-Family,3.52,8004,0.427335825,C,Other,WoodFrame,1986,10,-121.9456969,37.2616558
490 Estudillo Ave,San Leandro,94577,7/3/2007,2150000,Multi-Family,4.3,11100,1.088128615,C,Other,WoodFrame,1964,18,-122.150452,37.72681
10-20 Werner Ave,Daly City,94014,8/1/2007,2130000,Multi-Family,4.34,11002,1.220275067,C,Other,ReinforcedConcrete,1972,10,-122.468184,37.693204
17-& 21 Circle Dr,Belvedere Tiburon,94920,4/27/2007,2121000,Multi-Family,4.5,7750,0.697758171,C,Other,WoodFrame,1963,9,-122.4980687,37.8985622
465 Lee St,Oakland,94610,1/31/2007,2100000,Multi-Family,4.54,25624,3.268367347,C,Other,WoodFrame,1966,16,-122.2573793,37.8095502
2124 Mckinley Ave,Berkeley,94703,3/27/2007,2100000,Multi-Family,5.01,14241,1.52066204,C,Good,Unknown,1929,18,-122.274244,37.8694848
501 Alameda Del Prado,Novato,94949,9/7/2007,2050000,Multi-Family,7.9,11304,1.256139571,C,Other,Unknown,1975,8,-122.5401285,38.0648789
77 N Ellsworth Ave,San Mateo,94401,6/1/2007,2050000,Multi-Family,4.2,8268,0.682797919,C,Other,WoodFrame,1961,12,-122.3271917,37.568759
633 Alma Ave,Oakland,94610,4/12/2007,2030000,Multi-Family,6.17,12355,2.578793571,C,Other,ReinforcedConcrete,1935,18,-122.238854,37.804693
2645 Church Ln,San Pablo,94806,5/10/2007,2029000,Multi-Family,4.8,37025,0.653828495,C,Other,WoodFrame,1972,52,-122.337226,37.962355
485 Warren Dr,San Francisco,94131,9/7/2007,2000000,Multi-Family,3.4,7137,1.092286501,C,Other,Unknown,1961,9,-122.462446,37.7581699
604 Waller St,San Francisco,94117,9/7/2007,2000000,Multi-Family,6.15,4764,2.232427366,C,Good,WoodFrame,1905,6,-122.43376,37.770796
2126-2128 Pine St,San Francisco,94115,4/18/2007,2000000,Multi-Family,5,5275,1.459197787,C,Other,WoodFrame,1900,8,-122.4309294,37.7885312
3947 18th St,San Francisco,94114,4/23/2007,1925000,Multi-Family,4.64,5010,1.759129213,C,Other,WoodFrame,1912,6,-122.4316257,37.7608861
321 W Estudillo Ave,San Leandro,94577,2/5/2007,1920000,Multi-Family,5.19,9075,0.725941925,C,Other,WoodFrame,1959,14,-122.157748,37.723992
49-51 Walter St,San Francisco,94114,6/8/2007,1875000,Multi-Family,5.7,6589,2.109830291,C,Other,WoodFrame,1907,6,-122.432091,37.768394
20962-20986 Royal Ave,Hayward,94541,4/13/2007,1810000,Multi-Family,6.08,22252,0.545766703,C,Other,WoodFrame,1958,11,-122.113735,37.667623
625 Hyde St,San Francisco,94109,3/16/2007,1795000,Multi-Family,4.5,6444,2.947849954,C,Other,ReinforcedConcrete,1920,7,-122.4166981,37.7866631
1001-1007 Page St,San Francisco,94117,3/2/2007,1775000,Multi-Family,5.9,6144,1.932683234,C,Other,Unknown,1900,6,-122.4374626,37.7720412
125 4th Ave,San Francisco,94118,4/11/2007,1706888,Multi-Family,6.35,3950,1.295506724,B,Other,WoodFrame,1972,4,-122.462867,37.786216
2371 Sutter Ave,Santa Clara,95050,6/28/2007,1700000,Multi-Family,4.4,6876,0.607152318,C,Other,ReinforcedConcrete,1959,12,-121.963198,37.32928
32 E 40th Ave,San Mateo,94403,3/30/2007,1675000,Multi-Family,4.34,8028,1.137755102,C,Other,ReinforcedConcrete,1958,10,-122.290583,37.532736
530 Grove St,San Francisco,94102,6/28/2007,1635000,Multi-Family,6,5700,1.613816535,C,Other,ReinforcedConcrete,1900,10,-122.4255438,37.7777098
3832-3836 23rd St,San Francisco,94114,5/18/2007,1625000,Multi-Family,3.46,4088,2.760297097,C,Other,WoodFrame,1906,4,-122.4283637,37.7533857
463 W Sunset Blvd,Hayward,94541,3/23/2007,1610000,Multi-Family,5.55,8927,0.218718608,C,Other,WoodFrame,1960,11,-122.11181,37.67018
2867 MacArthur Blvd,Oakland,94602,1/26/2007,1600000,Multi-Family,6.12,27160,2.711119984,C,Other,WoodFrame,1933,16,-122.207218,37.798003
1507 Chestnut St,Alameda,94501,5/30/2007,1600000,Multi-Family,3.93,6772,1.295580639,C,Other,WoodFrame,1954,9,-122.251961,37.769953
4725 Mission St,San Francisco,94112,4/4/2007,1600000,Multi-Family,5,9900,2.36785458,C,Other,WoodFrame,1927,8,-122.436045,37.722634
2600 International Blvd,Oakland,94601,6/28/2007,1565000,Multi-Family,6.8,12158,1.430689574,C,Other,WoodFrame,1925,24,-122.2322812,37.7816007
2058-2060 San Ramon Ave,Mountain View,94043,8/24/2007,1550000,Multi-Family,4.27,5576,0.33042963,B,Other,Unknown,1962,6,-122.0918,37.4107868
540 Canal St,San Rafael,94901,2/23/2007,1550000,Multi-Family,5.04,6600,0.505050505,C,Other,WoodFrame,1970,10,-122.5112231,37.9673505
24 Belcher St,San Francisco,94114,4/13/2007,1550000,Multi-Family,3.91,4876,1.554846939,C,Other,WoodFrame,1974,6,-122.4304387,37.7688691
391 College Ave,Palo Alto,94306,9/6/2007,1536000,Multi-Family,3.64,4462,0.682889501,C,Other,Unknown,1962,5,-122.145957,37.4276457
98 Dutton Ave,San Leandro,94577,9/5/2007,1510000,Multi-Family,4.4,6425,0.456677802,C,Other,Masonry,1962,10,-122.159055,37.731761
1381 20th Ave,San Francisco,94122,7/13/2007,1490000,Multi-Family,6,4100,1.364392679,C,Other,WoodFrame,1962,6,-122.478348,37.76215
259 San Luis Ave,San Bruno,94066,7/6/2007,1450500,Multi-Family,5.06,5469,1.00848239,C,Other,ReinforcedConcrete,1962,6,-122.4050428,37.6187302
6612 Schmidt Ln,El Cerrito,94530,8/20/2007,1447500,Multi-Family,4.19,6708,0.706402696,C,Other,WoodFrame,1961,8,-122.3071226,37.9152219
3116 Lone Tree Way,Antioch,94509,3/30/2007,1430000,Multi-Family,4.33,8269,0.527326063,C,Other,WoodFrame,1990,10,-121.8082986,37.9908615
1504 Scott St,San Jose,95126,9/7/2007,1400000,Multi-Family,5.2,8496,0.780165289,B,Other,WoodFrame,1959,10,-121.917182,37.3194273
2101 Bridgeway Blvd,Sausalito,94965,5/31/2007,1400000,Multi-Family,4.08,3080,0.614893192,C,Other,WoodFrame,1893,5,-122.4958652,37.8624899
715 Pettis Ave,Mountain View,94041,6/26/2007,1400000,Multi-Family,3.99,5536,0.373801485,C,Other,WoodFrame,1959,7,-122.090528,37.390215
423 Studio Cir,San Mateo,94401,4/20/2007,1395500,Multi-Family,4.7,4900,0.692285956,C,Other,WoodFrame,1962,7,-122.3354073,37.5780986
2930 MacArthur Blvd,Oakland,94602,7/12/2007,1395000,Multi-Family,6.3,20228,2.02259774,C,Other,WoodFrame,1957,12,-122.206064,37.798128
4064 Hamilton Ave,San Jose,95130,4/5/2007,1380000,Multi-Family,4.22,6612,0.48981406,C,Other,Unknown,1963,8,-121.973945,37.293567
1395 Broadway,Millbrae,94030,5/10/2007,1380000,Multi-Family,3.41,5668,0.872134174,C,Other,Unknown,1954,5,-122.4019715,37.6092259
536 Vera Ave,Redwood City,94061,6/14/2007,1358438,Multi-Family,4.12,3650,0.335169881,C,Other,WoodFrame,1994,3,-122.232051,37.477477
1424 Laurel St,San Carlos,94070,5/1/2007,1355000,Multi-Family,3.8,6574,1.312437612,C,Other,ReinforcedConcrete,1959,6,-122.249369,37.496427
1264 Bush St,San Francisco,94109,6/26/2007,1350000,Multi-Family,3.83,4167,1.323277231,C,Other,Masonry,1917,6,-122.4180904,37.7891614
295-299 Guerrero St,San Francisco,94103,6/21/2007,1350000,Multi-Family,4.4,5670,2.701286327,B,Other,WoodFrame,1924,8,-122.424177,37.766494
302 Laurel Way,Mill Valley,94941,5/8/2007,1350000,Multi-Family,5.2,3200,1.123595506,C,Other,Unknown,1970,4,-122.5332898,37.8787698
361 Palm Ave,Oakland,94610,6/27/2007,1339500,Multi-Family,5.44,8504,1.301499847,C,Other,Masonry,1963,10,-122.25413,37.812425
2301 San Antonio Ave,Alameda,94501,8/29/2007,1330000,Multi-Family,4.2,5516,1.22960321,C,Other,WoodFrame,1914,7,-122.245742,37.762227
875 Fulton St,San Francisco,94117,3/29/2007,1310000,Multi-Family,4.47,5514,0.729172177,C,Other,WoodFrame,1965,8,-122.4309273,37.7775252
1413 Bay St,Alameda,94501,6/29/2007,1300000,Multi-Family,5.08,4605,0.556428226,C,Other,Unknown,1962,4,-122.265044,37.771533
322 N Claremont St,San Mateo,94401,5/11/2007,1300000,Multi-Family,4.28,4050,0.505302558,C,Good,Unknown,1960,5,-122.3285,37.57359
1537 Jones St,San Francisco,94109,4/18/2007,1295000,Multi-Family,3.8,3451,2.200892857,C,Other,WoodFrame,1913,7,-122.415347,37.795529
3539 Agate Dr,Santa Clara,95051,1/24/2007,1290000,Multi-Family,4.8,7008,0.498116426,C,Other,WoodFrame,1961,11,-121.9942244,37.3698198
2275 Park Blvd,Oakland,94606,4/16/2007,1260000,Multi-Family,4.52,6543,0.938872148,C,Other,Masonry,1953,10,-122.2456341,37.8019229
631 41st Ave,San Francisco,94121,6/28/2007,1255000,Multi-Family,3.06,3414,1.139519359,C,Other,WoodFrame,1962,5,-122.502115,37.776718
1713 Dwight Way,Berkeley,94703,7/10/2007,1250000,Multi-Family,5,7336,1.086653829,C,Other,WoodFrame,1963,8,-122.276146,37.86314
1510 Bonita Ave,Berkeley,94709,5/1/2007,1225000,Multi-Family,5.1,4506,0.834289946,C,Other,Unknown,1958,8,-122.2729724,37.8790979
4230 Payne Ave,San Jose,95117,1/5/2007,1225000,Multi-Family,4.7,6420,0.58953168,C,Other,ReinforcedConcrete,1963,8,-121.9772812,37.3006718
4260 Payne Ave,San Jose,95117,1/5/2007,1225000,Multi-Family,4.8,3876,0.105930582,C,Other,Masonry,1963,8,-121.977708,37.300643
1950 Ivy St,San Mateo,94403,4/20/2007,1210000,Multi-Family,3.91,4428,0.782055811,C,Other,WoodFrame,1950,6,-122.3097457,37.549005
6446-6452 Colby St,Oakland,94618,3/16/2007,1200000,Multi-Family,5.81,4640,0.714946071,C,Other,WoodFrame,1910,9,-122.256812,37.852664
2651 Contra Costa Blvd,Pleasant Hill,94523,1/11/2007,1200000,Multi-Family,5,6636,0.253902663,B,Good,Unknown,1959,10,-122.061179,37.941331
3151 Eton Ave,Berkeley,94705,1/31/2007,1194000,Multi-Family,4,6260,1.306616573,B,Good,Unknown,1920,5,-122.2500616,37.8526425
19911-19921 Anita Ave,Castro Valley,94546,4/12/2007,1187000,Multi-Family,4.5,10144,0.714366197,C,Other,Masonry,1961,6,-122.0842327,37.7002007
644-648 Natoma St,San Francisco,94103,1/11/2007,1186750,Multi-Family,4.36,6300,1.681793914,C,Other,WoodFrame,1907,6,-122.4111392,37.7776338
3217 Cadillac Dr,San Jose,95117,4/30/2007,1175000,Multi-Family,5,6054,0.661856346,C,Other,Masonry,1958,10,-121.953318,37.297092
1433-1455 Spruce St,Berkeley,94709,2/23/2007,1175000,Multi-Family,5.33,4703,0.696637535,C,Other,WoodFrame,1900,8,-122.2657207,37.8810741
560 Geneva Ave,Redwood City,94061,4/18/2007,1160000,Multi-Family,4.31,4650,0.45045045,C,Other,WoodFrame,1958,8,-122.2255891,37.4713986
1409 5th Ave,San Rafael,94901,9/18/2007,1160000,Multi-Family,4,3500,0.462840518,B,Good,WoodFrame,1888,5,-122.5324026,37.9743965
1618 Milvia St,Berkeley,94709,5/31/2007,1150000,Multi-Family,6.07,4456,0.930077228,C,Other,WoodFrame,1964,5,-122.2717289,37.8773874
313 Lawton St,Antioch,94509,8/29/2007,1150000,Multi-Family,6.5,9084,0.566864275,C,Other,Unknown,1988,11,-121.8107042,38.0012917
2339 Ward St,Berkeley,94705,5/1/2007,1125000,Multi-Family,5.92,4979,0.816497212,C,Other,WoodFrame,1901,8,-122.260088,37.860503
1640 Euclid Ave,Berkeley,94709,6/29/2007,1120000,Multi-Family,4.98,4164,1.195177956,C,Other,Unknown,1926,7,-122.2610271,37.8787528
183 Duboce Ave,San Francisco,94103,5/1/2007,1115500,Multi-Family,7.1,6150,2.567849687,C,Other,WoodFrame,1906,6,-122.4240746,37.7695842
671 Bellflower Ave,Sunnyvale,94086,5/31/2007,1105000,Multi-Family,3.96,3031,0.347910927,C,Other,WoodFrame,1961,6,-122.0205312,37.3663581
605 Bryan Ave,Sunnyvale,94086,7/31/2007,1100000,Multi-Family,4.1,3792,0.435261708,C,Other,WoodFrame,1957,6,-122.0211757,37.3725835
416 Jackson Ave,Redwood City,94061,5/25/2007,1080000,Multi-Family,3.47,3814,0.733320515,C,Other,WoodFrame,1968,4,-122.232419,37.480035
1972 Desert Cir,Walnut Creek,94598,2/16/2007,1075000,Multi-Family,4.01,4048,0.385633991,C,Other,WoodFrame,1967,5,-122.034058,37.919976
2022 Dwight Way,Berkeley,94704,8/22/2007,1070000,Multi-Family,9.8,2724,0.350353698,C,Other,WoodFrame,1906,7,-122.2685736,37.8635539
1149 Roewill Dr,San Jose,95117,5/8/2007,1050000,Multi-Family,5.13,4448,0.537457709,C,Other,WoodFrame,1962,8,-121.9725581,37.3047146
1130 Roewill Dr,San Jose,95117,6/1/2007,1035000,Multi-Family,5.64,6988,0.862503086,C,Other,Masonry,1960,8,-121.972009,37.305368
1839 Joan Way,Santa Clara,95050,8/3/2007,1030000,Multi-Family,6,5332,0.553916476,C,Other,WoodFrame,1959,6,-121.9609188,37.3567814
1077 Eugene Ave,San Jose,95126,6/22/2007,1030000,Multi-Family,5.19,5400,0.619834711,C,Other,WoodFrame,1958,8,-121.9107704,37.3273532
197 Blossom Way,Hayward,94541,6/29/2007,1020000,Multi-Family,5.32,6596,0.332728006,C,Other,WoodFrame,1960,6,-122.108247,37.676712
3570 Pacheco Blvd,Martinez,94553,7/10/2007,1002000,Multi-Family,6.87,6848,0.234641083,C,Other,WoodFrame,1962,10,-122.103966,38.010918
3262 Rolison Rd,Redwood City,94063,3/30/2007,1000000,Multi-Family,4.24,9104,1.21516284,C,Other,ReinforcedConcrete,1972,7,-122.194359,37.485653
78 Glen Ave,Oakland,94611,1/22/2007,1000000,Multi-Family,5.1,3489,1.14430961,C,Other,WoodFrame,1918,7,-122.250936,37.825634
1390 Jonathan St,Santa Clara,95050,5/25/2007,1000000,Multi-Family,3.97,3934,0.430086367,C,Other,ReinforcedConcrete,1976,4,-121.945362,37.341138
460 W 10th St,Pittsburg,94565,7/3/2007,1000000,Multi-Family,5.3,10071,1.616792423,C,Other,Masonry,1947,12,-121.89262,38.029701
1969-1971 Euclid Ave,Menlo Park,94025,5/24/2007,998000,Multi-Family,3.8,2811,0.311779059,B,Other,WoodFrame,1946,4,-122.1450139,37.4598709
1125 3rd St,Novato,94945,8/7/2007,985000,Multi-Family,9.85,15748,2.10197544,C,Other,Unknown,1963,5,-122.572894,38.111285
1718 S Grant St,San Mateo,94402,3/1/2007,975000,Multi-Family,4,4310,0.828686791,C,Other,Unknown,1958,5,-122.30307,37.557012
2128 Monroe St,Santa Clara,95050,1/19/2007,957500,Multi-Family,5.33,4123,0.591620032,C,Other,WoodFrame,1960,6,-121.95667,37.360481
154 Poplar Ave,Redwood City,94061,7/25/2007,950000,Multi-Family,4.27,5050,0.918014906,C,Other,Unknown,1964,5,-122.2233322,37.4752002
1534 Benton St,Alameda,94501,2/21/2007,950000,Multi-Family,4.2,2583,0.5030185,B,Good,Unknown,1903,4,-122.260611,37.773949
2215 Royal Dr,Santa Clara,95050,7/27/2007,942000,Multi-Family,3.78,3874,0.404257539,C,Other,WoodFrame,1958,6,-121.963441,37.357614
22620 3rd St,Hayward,94541,5/11/2007,937500,Multi-Family,6,2012,0.129747856,C,Other,WoodFrame,1937,6,-122.07701,37.676074
669 N 2nd St,San Jose,95112,2/9/2007,935000,Multi-Family,5,3640,0.596917022,C,Good,WoodFrame,1957,6,-121.898937,37.348773
1131 Oakmont Dr,San Jose,95117,4/27/2007,930000,Multi-Family,4,3692,0.498582039,C,Other,Masonry,1963,4,-121.971576,37.305363
1522 Prince St,Berkeley,94703,4/26/2007,925000,Multi-Family,7.69,4934,0.725694955,C,Other,WoodFrame,1963,6,-122.2775667,37.8514257
491 Leigh Ave,San Jose,95128,3/13/2007,919000,Multi-Family,6.4,3480,0.570678911,C,Other,Unknown,1956,8,-121.9240726,37.3198732
3789 Starview Dr,San Jose,95124,4/17/2007,911000,Multi-Family,3.9,3500,0.502224135,C,Other,Unknown,1963,4,-121.945772,37.259666
1445 Loeffler Ln,Concord,94521,9/17/2007,900000,Multi-Family,5.27,4980,0.519670249,C,Other,Unknown,1961,6,-122.002198,37.967011
752 Vine St,San Jose,95110,9/12/2007,900000,Multi-Family,6.5,4303,0.625254287,C,Other,Unknown,1958,8,-121.886096,37.322651
354 Camille Ln,Mountain View,94040,4/6/2007,880000,Multi-Family,4.72,2600,0.2769788,C,Other,Unknown,1954,5,-122.0801412,37.3823405
382 N Fairoaks Ave,Sunnyvale,94085,8/24/2007,879000,Multi-Family,5.4,2808,0.290112615,C,Other,WoodFrame,1954,6,-122.0176906,37.3828438
506-512 Redwood Ave,Redwood City,94061,6/21/2007,875000,Multi-Family,3.77,4030,0.486950217,C,Other,WoodFrame,1960,4,-122.227649,37.472976
103 Virginia Hills Dr,Martinez,94553,4/24/2007,860000,Multi-Family,3.5,3670,0.364738621,C,Other,WoodFrame,1972,4,-122.0930627,37.9573253
8036 Greenridge Dr,Oakland,94605,1/5/2007,850000,Multi-Family,5.42,6102,0.26939208,B,Other,WoodFrame,1968,6,-122.1536773,37.7728361
2700-2714 Sacramento St,Berkeley,94702,2/9/2007,839500,Multi-Family,7.5,4005,0.395126283,C,Other,WoodFrame,1928,8,-122.280451,37.858446
3621 Dimond Ave,Oakland,94602,7/13/2007,835000,Multi-Family,7,10464,1.691835085,C,Other,WoodFrame,1963,6,-122.216942,37.802676
415 E 19th St,Oakland,94606,5/1/2007,810000,Multi-Family,4,4796,1.596006656,C,Other,Unknown,1934,6,-122.2499205,37.7994496
4833 Shafter Ave,Oakland,94609,4/3/2007,800000,Multi-Family,5.31,4069,0.389229003,C,Other,Masonry,1924,5,-122.259,37.834818
64-68 N 10th St,San Jose,95112,3/8/2007,800000,Multi-Family,5.1,3900,0.617479417,C,Other,WoodFrame,1898,6,-121.881506,37.341731
690 Whipple Ave,Redwood City,94063,2/9/2007,800000,Multi-Family,4.41,3064,0.611698942,C,Other,WoodFrame,1960,5,-122.2368678,37.4932524
357 Lester Ave,Oakland,94606,6/27/2007,780000,Multi-Family,5.51,3903,0.466698553,C,Other,Masonry,1935,5,-122.249498,37.802398
872 S 45th St,Richmond,94804,3/21/2007,760000,Multi-Family,7,4356,0.483141083,C,Other,WoodFrame,1962,6,-122.327977,37.919827
620-622 S 3rd St,San Jose,95112,8/3/2007,750000,Multi-Family,4.7,6642,0.755975415,C,Other,WoodFrame,1898,11,-121.8811585,37.3278934
870 31st St,Oakland,94608,5/31/2007,750000,Multi-Family,6.5,5056,0.720946813,C,Other,WoodFrame,1962,7,-122.275248,37.821631
525 S 30th St,Richmond,94804,3/8/2007,735000,Multi-Family,4.9,3477,0.798209366,C,Other,Unknown,1960,4,-122.340772,37.924602
9426 Hillside St,Oakland,94603,9/18/2007,715000,Multi-Family,7,12520,1.671115857,C,Other,WoodFrame,1962,7,-122.161285,37.75181
332 N 8th St,San Jose,95112,3/27/2007,700000,Multi-Family,4.08,5292,0.759362893,C,Other,WoodFrame,1898,4,-121.886578,37.344873
5400 Walnut St,Oakland,94619,4/12/2007,700000,Multi-Family,5.61,5230,1.044120583,C,Other,Masonry,1924,8,-122.193874,37.774938
510-512 Redwood Ave,Redwood City,94061,6/21/2007,675000,Multi-Family,3.48,3110,0.446262018,C,Other,WoodFrame,1951,2,-122.227741,37.472812
822 56th St,Oakland,94608,3/9/2007,667000,Multi-Family,4.56,3092,0.773386693,C,Other,WoodFrame,1912,5,-122.270967,37.840759
1349 Derby St,Berkeley,94702,3/14/2007,640000,Multi-Family,4.07,2320,0.641770401,C,Other,WoodFrame,1923,5,-122.282731,37.858568
546 30th St,Oakland,94609,4/12/2007,635000,Multi-Family,6.2,3076,0.547428368,B,Other,Masonry,1907,6,-122.268474,37.819457
9301 Bancroft Ave,Oakland,94603,8/29/2007,560000,Multi-Family,6.08,3673,0.633603588,B,Other,Masonry,1965,6,-122.164786,37.751893
1936 22nd St,San Pablo,94806,3/8/2007,538000,Multi-Family,4.2,2552,0.770996979,C,Other,Unknown,1970,3,-122.347352,37.959112
3084 22nd Ave,Oakland,94602,3/9/2007,500000,Multi-Family,6,2990,0.596925534,C,Other,WoodFrame,1908,5,-122.2261,37.798156
532 25th St,Oakland,94612,1/5/2007,415000,Multi-Family,8.56,2255,0.73958675,C,Other,Masonry,1908,5,-122.269217,37.814666
355 Berry St,San Francisco,94158,3/28/2008,115000000,Multi-Family,4.15,162850,2.033464444,A,Other,ReinforcedConcrete,2007,193,-122.3969067,37.772466
3133 Frontera Way,Burlingame,94010,10/22/2007,55750000,Multi-Family,3.15,171515,0.802266732,B,Other,WoodFrame,1967,139,-122.4022108,37.5821522
111 N Rengstorff Ave,Mountain View,94043,2/6/2008,47000000,Multi-Family,3.8,271000,0.576046662,C,Other,WoodFrame,1962,188,-122.095632,37.403992
889 Mowry Ave,Fremont,94536,1/31/2008,40300000,Multi-Family,4.5,162932,0.280811211,B,Other,Masonry,1973,204,-121.9765583,37.5669235
1221 Jones St,San Francisco,94109,4/25/2008,37265000,Multi-Family,4.2,108000,8.609007573,A,Other,Steel,1971,72,-122.4147254,37.7927489
7375 Rollingdell Dr,Cupertino,95014,11/16/2007,36200000,Multi-Family,5.22,118240,0.530160025,C,Other,WoodFrame,1978,128,-122.033342,37.306308
1800 Stokes St,San Jose,95126,11/7/2007,35550000,Multi-Family,5,174964,0.587226045,B,Other,WoodFrame,1970,200,-121.9260691,37.300403
745 S Bernardo Ave,Sunnyvale,94087,4/24/2008,33000000,Multi-Family,4.8,160056,0.74080451,C,Other,WoodFrame,1968,147,-122.0583308,37.3712175
1552 E Gate Way,Pleasanton,94566,10/25/2007,28550000,Multi-Family,4.1,111574,0.428972379,A,Other,WoodFrame,2002,100,-121.8951335,37.6563959
11720-11780 San Pablo Ave,El Cerrito,94530,11/6/2007,28000000,Multi-Family,5.2,126165,0.839521699,A,Other,Masonry,1992,135,-122.3192779,37.9274961
555 S Park Victoria Dr,Milpitas,95035,4/2/2008,27500000,Multi-Family,4.6,111182,0.375351105,A,Other,WoodFrame,1973,137,-121.88237,37.426974
20875 Valley Green Dr,Cupertino,95014,3/20/2008,26150000,Multi-Family,4.6,382196,0.877401286,C,Other,WoodFrame,1964,468,-122.037475,37.333013
1930 Almaden Rd,San Jose,95125,12/20/2007,26000000,Multi-Family,4,113500,0.427849819,B,Other,WoodFrame,1977,152,-121.878767,37.299692
1001 Cresta Dr,San Rafael,94903,10/5/2007,24000000,Multi-Family,3.8,101015,0.374634693,B,Other,Unknown,1968,104,-122.5349632,38.0223528
850 Meridian Way,San Jose,95126,11/28/2007,22375000,Multi-Family,5.2,106762,0.747235365,C,Other,WoodFrame,1978,112,-121.9126581,37.3126367
1100-1128 E Leland Rd,Pittsburg,94565,3/12/2008,22000000,Multi-Family,5.99,164928,0.434151298,B,Other,WoodFrame,1986,208,-121.874258,38.0086
2130 Southwest Expy,San Jose,95126,1/30/2008,18810000,Multi-Family,5,80145,0.475420728,B,Other,WoodFrame,1971,114,-121.930091,37.298091
4271 N First St,San Jose,95134,4/30/2008,14740940,Multi-Family,5.59,4517,0.003947319,C,Other,WoodFrame,1980,158,-121.9619545,37.4181572
2130 Southwest Expy,San Jose,95126,1/30/2008,12705000,Multi-Family,5,80145,0.475420728,B,Other,WoodFrame,1971,114,-121.930091,37.298091
13495 Bancroft Ave,San Leandro,94578,10/31/2007,12500000,Multi-Family,5.5,65471,0.703989247,C,Other,ReinforcedConcrete,1963,92,-122.1426043,37.7165563
851 N Amphlett Blvd,San Mateo,94401,4/11/2008,12350000,Multi-Family,5.82,59460,0.780007871,C,Other,WoodFrame,1972,76,-122.3281526,37.5831132
415-417 A St,Daly City,94014,3/31/2008,11800000,Multi-Family,5.2,46639,1.639677964,B,Other,WoodFrame,1965,85,-122.4639267,37.6862398
851 N Amphlett Blvd,San Mateo,94401,10/1/2007,10500000,Multi-Family,6.19,59460,0.780007871,C,Other,WoodFrame,1972,76,-122.3281526,37.5831132
840-842 Coleman Ave,Menlo Park,94025,10/15/2007,9740000,Multi-Family,5.03,49245,1.090190609,C,Other,WoodFrame,1959,41,-122.1641601,37.4632712
191 Frederick St,San Francisco,94117,10/31/2007,9100000,Multi-Family,7.06,15200,2.171428571,B,Other,WoodFrame,1910,29,-122.446064,37.76699
2800 Gentrytown Dr,Antioch,94509,11/8/2007,8850000,Multi-Family,5.59,67400,0.37923972,C,Other,WoodFrame,1978,85,-121.838971,37.996237
4935 San Pablo Dam Rd,El Sobrante,94803,12/31/2007,8750000,Multi-Family,4.5,55290,0.547106146,B,Other,WoodFrame,1988,75,-122.290659,37.964411
1626-1656 Hillsdale Ave,San Jose,95124,11/13/2007,8550000,Multi-Family,5.05,57770,0.724715859,B,Other,WoodFrame,1965,48,-121.9055646,37.2673791
850 E Leland Rd,Pittsburg,94565,2/28/2008,8000000,Multi-Family,6.25,73852,0.294853675,B,Other,WoodFrame,1965,81,-121.879513,38.009015
2185 Bay St,San Francisco,94123,10/31/2007,7900000,Multi-Family,4.09,12438,2.653723064,B,Other,Masonry,1926,24,-122.442897,37.801669
890 Bush St,San Francisco,94108,10/31/2007,7500000,Multi-Family,3.6,23800,5.194238324,B,Other,Masonry,1919,47,-122.4119479,37.7899951
434 Central Ave,Alameda,94501,9/26/2007,7365000,Multi-Family,5.4,34480,0.737019858,C,Other,WoodFrame,1964,53,-122.284534,37.771204
3713 Mt Diablo Blvd,Lafayette,94549,12/19/2007,6900000,Multi-Family,4.83,29025,0.584497966,C,Other,WoodFrame,1958,46,-122.130687,37.888903
2165 Carlmont Dr,Belmont,94002,11/27/2007,6475000,Multi-Family,4.23,28620,1.303397395,C,Other,ReinforcedConcrete,1966,21,-122.296499,37.5097419
1895 Jefferson St,San Francisco,94123,10/25/2007,6100000,Multi-Family,4,11205,2.390655003,B,Other,WoodFrame,1927,18,-122.4435082,37.8045604
1275 El Camino Real,Millbrae,94030,4/16/2008,5850000,Multi-Family,5.24,18900,0.741583615,C,Other,ReinforcedConcrete,1962,27,-122.3999218,37.6080204
1 Cabrillo St,San Francisco,94118,10/17/2007,5800000,Multi-Family,4,21000,2.678571429,C,Other,Unknown,1966,23,-122.4587959,37.7753841
1962 Bellomy St,Santa Clara,95050,4/4/2008,5550000,Multi-Family,7.92,26403,0.968277835,C,Other,WoodFrame,1961,37,-121.9543036,37.3401893
461-465 Bellevue Ave,Oakland,94610,5/9/2008,5200000,Multi-Family,5.65,17604,1.022121582,C,Other,Masonry,1921,22,-122.2531942,37.8078967
1385 Clay St,San Francisco,94109,11/16/2007,4800000,Multi-Family,4,13885,3.985361653,C,Other,WoodFrame,1907,24,-122.415868,37.7929445
2020-2024 Clarmar Way,San Jose,95128,11/8/2007,4750000,Multi-Family,5.52,16524,0.379338843,C,Other,WoodFrame,1956,34,-121.9333079,37.3261871
1920 Latham Rd,Mountain View,94040,5/14/2008,4350000,Multi-Family,4.96,22222,0.800244877,C,Other,WoodFrame,1961,23,-122.096332,37.395001
2541-2569 Le Conte Ave,Berkeley,94709,2/8/2008,4330000,Multi-Family,4.26,20779,1.662187025,C,Other,WoodFrame,1950,29,-122.2595032,37.877334
1801 Jackson St,San Francisco,94109,4/11/2008,4250000,Multi-Family,3.94,8286,2.161753196,C,Other,Unknown,1955,12,-122.4248729,37.7935597
250 Divisadero St,San Francisco,94117,11/16/2007,4000000,Multi-Family,5.22,10200,2.72,C,Other,Unknown,1925,16,-122.4368858,37.7715333
39 Fair Oaks St,San Francisco,94110,11/20/2007,3900000,Multi-Family,5.2,12948,1.857942316,C,Other,WoodFrame,1962,17,-122.424009,37.7561
949 Fell St,San Francisco,94117,10/31/2007,3680000,Multi-Family,4.12,19046,2.572045915,B,Other,Unknown,1909,12,-122.4333805,37.7743467
52 E 41st Pl,San Mateo,94403,2/29/2008,3666500,Multi-Family,5,15794,0.360067481,C,Other,WoodFrame,1963,20,-122.2891363,37.5335313
24545 O'Neil Ave,Hayward,94544,1/31/2008,3550000,Multi-Family,6,25463,0.731695402,C,Other,Masonry,1964,32,-122.077913,37.662247
2456 Westcliffe Ln,Walnut Creek,94597,2/29/2008,3500000,Multi-Family,5,14706,0.247876214,C,Other,WoodFrame,1968,16,-122.0557689,37.9161281
2265 Marina Blvd,San Leandro,94577,10/4/2007,3350000,Multi-Family,4.5,16431,0.576870414,B,Other,WoodFrame,1959,24,-122.1809684,37.7047279
1930 Channing Way,Berkeley,94704,4/29/2008,3290000,Multi-Family,5.93,17208,1.27438347,C,Other,Masonry,1962,24,-122.270767,37.865147
239 26th Ave,San Francisco,94121,5/30/2008,3275000,Multi-Family,3.05,11334,1.889629877,C,Other,Unknown,1963,12,-122.4863715,37.7849004
287 Euclid Ave,Oakland,94610,10/31/2007,3200000,Multi-Family,5.6,18493,1.886848281,C,Other,ReinforcedConcrete,1959,27,-122.253298,37.814306
1015 Fitzuren Rd,Antioch,94509,4/23/2008,3063000,Multi-Family,6.64,39142,0.609204526,C,Other,WoodFrame,1985,25,-121.82142,37.997752
1739 Addison St,Berkeley,94703,5/1/2008,3050000,Multi-Family,5.63,11679,1.474807425,C,Other,Unknown,1970,15,-122.2757526,37.8705331
1221 Vallejo Ave,Novato,94945,11/7/2007,2995000,Multi-Family,5.86,22308,0.990586146,C,Other,Unknown,1962,20,-122.572598,38.109914
248 Anza St,San Francisco,94118,12/17/2007,2982500,Multi-Family,3.32,9098,2.270526578,C,Other,WoodFrame,1963,10,-122.4497163,37.7810179
2950 Van Ness Ave,San Francisco,94109,4/3/2008,2950000,Multi-Family,2.46,9045,2.349350649,C,Other,WoodFrame,1925,12,-122.4245718,37.802963
150 28th St,San Francisco,94131,11/15/2007,2845000,Multi-Family,4,9963,1.633814365,B,Other,WoodFrame,1965,12,-122.4258148,37.7457246
1763 Golden Gate Ave,San Francisco,94115,11/8/2007,2800000,Multi-Family,5.49,10275,2.144646212,C,Other,Unknown,1908,12,-122.4395348,37.7784117
2821 Jackson St,San Francisco,94115,2/28/2008,2800000,Multi-Family,3.63,5219,1.221390124,C,Other,WoodFrame,1900,6,-122.441917,37.791353
1448-1450 Bush St,San Francisco,94109,12/18/2007,2775000,Multi-Family,4.85,12430,3.52324263,C,Other,Unknown,1980,12,-122.4211275,37.7888534
4950 California St,San Francisco,94118,5/16/2008,2700000,Multi-Family,3.9,10950,2.654545455,C,Other,WoodFrame,1923,12,-122.4707587,37.7847281
3040-3080 David Ave,San Jose,95128,12/21/2007,2684000,Multi-Family,7.19,11260,0.65162037,C,Other,WoodFrame,1957,22,-121.9479598,37.2973551
2351 Jackson St,San Francisco,94115,1/31/2008,2675000,Multi-Family,3.28,6055,1.904687008,C,Other,WoodFrame,1900,10,-122.43372,37.792314
1201 Geraldine Way,Belmont,94002,5/28/2008,2625000,Multi-Family,5.6,16558,1.275654854,C,Other,Unknown,1964,13,-122.2928321,37.5075305
300 Monte Vista Ave,Oakland,94611,11/1/2007,2560000,Multi-Family,4.93,13454,1.629997577,C,Other,WoodFrame,1962,16,-122.2499379,37.822873
1332 Shattuck Ave,Berkeley,94709,2/27/2008,2550000,Multi-Family,5.7,14298,1.513336156,C,Other,Unknown,1924,18,-122.2699618,37.8826262
3827-3831 Pacheco Blvd,Martinez,94553,3/6/2008,2548000,Multi-Family,6.94,18273,0.325188639,C,Other,Unknown,1980,25,-122.0976977,38.0100391
1949 Cooley Ave,East Palo Alto,94303,1/29/2008,2500000,Multi-Family,2.76,7653,0.554605406,C,Other,WoodFrame,1949,10,-122.139559,37.458321
114-118 Orange Ave,South San Francisco,94080,12/19/2007,2395000,Multi-Family,4.35,12320,1.120203673,C,Other,WoodFrame,1972,11,-122.4232168,37.6568425
475 Merritt Ave,Oakland,94610,4/25/2008,2350000,Multi-Family,5.29,14058,2.232137186,C,Other,WoodFrame,1962,10,-122.2490205,37.8066053
1651 Larkin St,San Francisco,94109,12/31/2007,2350000,Multi-Family,3.54,6900,2.227962544,B,Other,WoodFrame,1910,12,-122.4198983,37.7932482
2244 Lakeshore Ave,Oakland,94606,1/24/2008,2350000,Multi-Family,4.87,12556,1.687634409,C,Other,Unknown,1966,11,-122.249681,37.805993
367 Arguello Blvd,San Francisco,94118,10/25/2007,2325000,Multi-Family,4.2,5344,1.778369384,C,Other,WoodFrame,1985,5,-122.459429,37.7837575
180 Dolores St,San Francisco,94103,4/29/2008,2325000,Multi-Family,4.09,7600,1.453988904,C,Other,Unknown,1921,9,-122.4269332,37.7666581
1019-1023 Noel Dr,Menlo Park,94025,3/5/2008,2255000,Multi-Family,3.42,7460,0.515870272,C,Other,WoodFrame,1949,9,-122.180552,37.454679
308 Lux Ave,South San Francisco,94080,1/3/2008,2250000,Multi-Family,4.66,17918,1.421950639,C,Other,WoodFrame,1964,13,-122.4098952,37.6575236
1725 Hyde St,San Francisco,94109,1/31/2008,2246295,Multi-Family,5.1,7746,2.964408726,C,Other,WoodFrame,1911,7,-122.418737,37.7967655
3441-3447 20th St,San Francisco,94110,4/16/2008,2210000,Multi-Family,4.53,11450,1.902309354,B,Other,WoodFrame,1900,6,-122.4177,37.758563
33 E 7th St,Antioch,94509,4/25/2008,2200000,Multi-Family,6.06,20390,0.592525863,C,Other,WoodFrame,1973,24,-121.804815,38.013845
433-451 Stanford Ave,Palo Alto,94306,3/5/2008,2175000,Multi-Family,3.65,4650,0.313977043,C,Other,Unknown,1951,10,-122.148422,37.428251
1685 Solano Ave,Berkeley,94707,2/7/2008,2165000,Multi-Family,5.05,10860,1.650205136,C,Other,WoodFrame,,13,-122.2830772,37.8913899
424-428 Cole St,San Francisco,94117,11/21/2007,2150000,Multi-Family,5.46,5550,2.08882198,C,Other,WoodFrame,1904,6,-122.450283,37.771033
155 Fair Oaks St,San Francisco,94110,1/24/2008,2029000,Multi-Family,4.25,4350,1.248564868,C,Other,WoodFrame,1910,5,-122.423909,37.754265
430 E Maude Ave,Sunnyvale,94085,11/20/2007,2025000,Multi-Family,4.7,8736,0.527791203,C,Other,Unknown,1954,12,-122.0216805,37.3865601
420 Lake St,San Francisco,94118,11/9/2007,1950000,Multi-Family,4.1,4926,1.885189437,C,Other,Unknown,1904,6,-122.4641529,37.7869569
3275 Brookdale Dr,Santa Clara,95051,1/15/2008,1950000,Multi-Family,3.95,7360,0.459397041,C,Other,Unknown,1973,9,-121.98679,37.3418775
1500 Hillside Dr,Burlingame,94010,12/5/2007,1950000,Multi-Family,3.42,7494,1.063280363,C,Other,ReinforcedConcrete,1964,9,-122.3723322,37.5873745
3154 Octavia St,San Francisco,94123,2/13/2008,1935000,Multi-Family,6.79,3150,1.827146172,C,Other,Unknown,1924,4,-122.4294768,37.801518
29 Belle Ave,San Anselmo,94960,10/22/2007,1920000,Multi-Family,3.8,3000,0.340947835,C,Other,WoodFrame,1964,7,-122.5623033,37.9698091
1250 Sanchez St,San Francisco,94114,2/22/2008,1825000,Multi-Family,3.57,4674,2.683122847,C,Other,WoodFrame,1916,6,-122.4296819,37.7492624
1091 Mi Casa Ct,Concord,94518,3/12/2008,1818000,Multi-Family,6.37,12412,0.445225626,B,Other,Unknown,1988,15,-122.040954,37.953626
2562 Post St,San Francisco,94115,10/12/2007,1800000,Multi-Family,4.5,4680,1.360069747,C,Other,WoodFrame,1965,8,-122.4440637,37.7839594
3856 19th St,San Francisco,94114,3/11/2008,1800000,Multi-Family,6.33,3432,0.601472135,C,Other,Unknown,1962,5,-122.429441,37.75985
215 W Olive Ave,Sunnyvale,94086,1/10/2008,1790000,Multi-Family,4.43,6390,0.584469039,C,Good,Unknown,1970,9,-122.0333839,37.3713347
2249 Van Ness Ave,San Francisco,94109,1/15/2008,1750000,Multi-Family,3.84,4940,1.488400121,B,Other,WoodFrame,1900,7,-122.4238931,37.7963936
800 E 20th St,Oakland,94606,3/14/2008,1700000,Multi-Family,6.88,9416,1.059644384,C,Other,Masonry,1963,16,-122.2454596,37.7974912
34752-34770 Perry Rd,Union City,94587,11/9/2007,1700000,Multi-Family,5.3,8354,0.430596361,C,Other,WoodFrame,1972,10,-122.0221956,37.583682
244 N Ellsworth Ave,San Mateo,94401,2/15/2008,1690000,Multi-Family,8.02,9065,0.774521531,C,Other,Unknown,1963,11,-122.3293321,37.5715341
1051 Post St,San Francisco,94109,2/5/2008,1675000,Multi-Family,6.4,19860,6.617794069,B,Other,Unknown,1914,27,-122.4190541,37.7866873
460 Lyon St,San Francisco,94117,5/15/2008,1650000,Multi-Family,5.2,5174,5.940298507,C,Other,WoodFrame,1900,7,-122.442699,37.775154
400 20th St,Richmond,94801,11/16/2007,1650000,Multi-Family,5.4,12441,0.771917851,C,Other,WoodFrame,1992,13,-122.350071,37.937106
1013 Noe St,San Francisco,94114,10/23/2007,1650000,Multi-Family,5.9,4875,1.474591652,C,Other,WoodFrame,1908,5,-122.431678,37.752783
225 Downey St,San Francisco,94117,1/29/2008,1650000,Multi-Family,4.44,4752,2.377188594,C,Other,Unknown,1911,5,-122.4469667,37.7648984
1468 Folsom St,San Francisco,94103,1/24/2008,1650000,Multi-Family,2.27,10035,2.084978184,C,Other,WoodFrame,1908,12,-122.4138297,37.7723177
510 N El Camino Real,San Mateo,94401,5/23/2008,1635000,Multi-Family,2.91,5431,0.479558499,C,Other,Unknown,1950,7,-122.3381097,37.5711476
866-870 Haight St,San Francisco,94117,12/28/2007,1635000,Multi-Family,5.11,5175,2.376033058,C,Other,WoodFrame,1912,5,-122.4365152,37.7715054
433 Ortega Ave,Mountain View,94040,11/28/2007,1620000,Multi-Family,4.21,7026,0.59739818,C,Other,WoodFrame,1961,8,-122.104903,37.399563
718-722 Live Oak Ave,Menlo Park,94025,11/16/2007,1600000,Multi-Family,3.53,4381,0.284831936,C,Other,Unknown,1942,8,-122.182311,37.450758
1742 Kentfield Ave,Redwood City,94061,4/22/2008,1600000,Multi-Family,6,8359,0.575094599,C,Other,Unknown,1955,8,-122.225812,37.462596
506 Almer Rd,Burlingame,94010,3/25/2008,1600000,Multi-Family,4.36,5616,0.636734694,C,Other,Unknown,1904,5,-122.3521972,37.5787773
2119 Central Ave,Alameda,94501,12/14/2007,1590000,Multi-Family,5.9,5952,0.569351444,B,Other,WoodFrame,1960,10,-122.2488237,37.7673715
472 Jean St,Oakland,94610,2/29/2008,1575000,Multi-Family,5.22,24498,2.647859922,C,Other,Masonry,1963,15,-122.250033,37.814651
620 Baker St,San Francisco,94117,11/15/2007,1555000,Multi-Family,3.96,3944,1.652283201,C,Other,WoodFrame,1900,5,-122.4413001,37.7769127
704 Prospect Row,San Mateo,94401,3/26/2008,1550000,Multi-Family,3.22,5945,0.762081784,C,Other,WoodFrame,1963,5,-122.3384768,37.5734629
1485 Church St,San Francisco,94131,3/28/2008,1550000,Multi-Family,4.36,4551,1.900208768,B,Other,WoodFrame,1913,6,-122.426667,37.747195
2116 San Jose Ave,Alameda,94501,4/3/2008,1550000,Multi-Family,5.98,5979,0.351954321,C,Other,WoodFrame,1925,10,-122.2518077,37.7633947
828 Fremont St,Menlo Park,94025,5/14/2008,1550000,Multi-Family,3.73,10172,1.081207483,C,Good,Unknown,1956,4,-122.185455,37.446415
1333-1337 Shattuck Ave,Berkeley,94709,2/1/2008,1505000,Multi-Family,5.03,8399,0.959337521,C,Other,WoodFrame,1894,13,-122.269311,37.882709
434 Lee St,Oakland,94610,4/30/2008,1500000,Multi-Family,5.07,7219,1.479909799,C,Other,WoodFrame,1961,11,-122.2564852,37.810029
3735 Anza St,San Francisco,94121,4/2/2008,1490000,Multi-Family,4.9,5640,1.879373542,C,Other,WoodFrame,1927,7,-122.488374,37.777806
387 Clifton Ave,San Jose,95128,12/5/2007,1465000,Multi-Family,4.29,3588,0.588389636,B,Other,WoodFrame,1956,12,-121.9251889,37.3219438
477 25th Ave,San Francisco,94121,2/5/2008,1460000,Multi-Family,3.39,4650,1.547420965,C,Other,WoodFrame,1926,6,-122.48507,37.780546
410 Elizabeth St,San Francisco,94114,1/24/2008,1415000,Multi-Family,4.91,3225,1.132373596,C,Other,WoodFrame,1878,5,-122.4304106,37.7525026
1413-1417 Jasmine St,San Mateo,94402,10/31/2007,1410000,Multi-Family,4.5,6575,0.657434257,C,Other,Unknown,1900,10,-122.3166192,37.5537709
4029 Beresford St,San Mateo,94403,4/4/2008,1400000,Multi-Family,3.2,4800,0.860986547,C,Other,WoodFrame,1947,6,-122.2923641,37.5304476
1939 Latham St,Mountain View,94040,5/16/2008,1400000,Multi-Family,4.88,5400,0.563497861,C,Other,WoodFrame,1959,9,-122.096732,37.394661
1317 El Camino Real,Burlingame,94010,3/14/2008,1400000,Multi-Family,2.5,5592,0.773443983,C,Other,WoodFrame,1953,6,-122.370727,37.586407
527 N Amphlett Blvd,San Mateo,94401,2/22/2008,1386500,Multi-Family,3.3,7271,1.098172481,C,Other,WoodFrame,1960,9,-122.325387,37.5805193
295 E San Fernando St,San Jose,95112,12/19/2007,1385000,Multi-Family,6.56,10255,0.980964224,C,Other,WoodFrame,1898,16,-121.88323,37.337457
570 Grand Ave,Oakland,94610,4/18/2008,1375000,Multi-Family,5.74,9700,2.356656948,C,Other,WoodFrame,1925,13,-122.2502018,37.8092721
3341-3345 18th St,San Francisco,94110,4/18/2008,1375000,Multi-Family,5.82,8304,2.969957082,C,Other,WoodFrame,1907,10,-122.417965,37.7617799
344 2nd Ave,San Francisco,94118,11/28/2007,1370000,Multi-Family,3.38,3992,1.309281732,C,Other,Unknown,1972,4,-122.459845,37.782329
1619 Josephine St,Berkeley,94703,1/23/2008,1350000,Multi-Family,5.2,5916,1.075440829,C,Other,Unknown,1961,8,-122.2744533,37.8771169
1929 26th Ave,Oakland,94601,12/27/2007,1340000,Multi-Family,6.95,15200,2.7696793,C,Other,ReinforcedConcrete,1928,23,-122.228778,37.785154
313 Camelback Rd,Pleasant Hill,94523,12/28/2007,1330000,Multi-Family,4.8,5808,0.267206478,C,Other,WoodFrame,1971,8,-122.0706381,37.9748793
2409 Karen Dr,Santa Clara,95050,4/1/2008,1275000,Multi-Family,4.4,4888,0.59062349,B,Other,WoodFrame,1960,7,-121.967562,37.342876
1040 6th St,Novato,94945,5/8/2008,1275000,Multi-Family,5.3,5280,0.364238411,C,Other,Unknown,1958,8,-122.576199,38.1104802
3509 Agate Dr,Santa Clara,95051,3/28/2008,1250000,Multi-Family,6.8,6118,0.487878788,C,Other,WoodFrame,1961,9,-121.99338,37.370031
1435 Regent St,Redwood City,94061,3/21/2008,1250000,Multi-Family,3.74,7146,0.791800554,C,Other,Unknown,1964,6,-122.228486,37.468861
32-40 Varennes St,San Francisco,94133,2/8/2008,1235000,Multi-Family,4,3954,1.766756032,C,Poor,WoodFrame,1906,6,-122.406598,37.8002765
3166-3176 Cadillac Dr,San Jose,95117,5/30/2008,1225000,Multi-Family,6.12,8194,0.940541781,C,Other,Masonry,1957,9,-121.952224,37.296592
775 Marsh Rd,Menlo Park,94025,10/31/2007,1225000,Multi-Family,7.08,5212,0.954928545,C,Other,WoodFrame,1961,7,-122.1882753,37.4746687
741 N Amphlett Blvd,San Mateo,94401,11/21/2007,1220000,Multi-Family,6,4525,0.742046573,C,Other,Unknown,1957,7,-122.3269064,37.5820336
1584 Regent St,Redwood City,94061,1/25/2008,1200000,Multi-Family,4.98,5580,0.582281123,C,Other,ReinforcedConcrete,1963,6,-122.2254975,37.4673589
560 Miller Ave,South San Francisco,94080,10/26/2007,1200000,Multi-Family,3.85,5899,0.842714286,C,Other,WoodFrame,1957,6,-122.4182684,37.6583468
49-59 Beideman St,San Francisco,94115,11/9/2007,1200000,Multi-Family,4,4605,2.3984375,C,Good,WoodFrame,1904,6,-122.4385736,37.7822991
33 Echo Ave,Oakland,94611,9/28/2007,1200000,Multi-Family,4.1,3468,0.751137102,C,Other,WoodFrame,1908,5,-122.248918,37.828057
149 Santa Helena Ave,Millbrae,94030,10/3/2007,1200000,Multi-Family,4.66,4486,0.723781865,C,Other,WoodFrame,1963,6,-122.4016216,37.6121393
256 N 3rd St,San Jose,95112,5/15/2008,1200000,Multi-Family,4.5,5600,0.75624578,C,Other,WoodFrame,1941,6,-121.8909674,37.3410324
2391-2395 Spring St,Redwood City,94063,4/9/2008,1195000,Multi-Family,6.07,6405,0.490128558,C,Other,WoodFrame,1949,6,-122.2123299,37.4833836
1868 W Bayshore Rd,East Palo Alto,94303,1/3/2008,1185000,Multi-Family,3.82,4111,0.412130326,C,Other,WoodFrame,1948,5,-122.131304,37.454209
3018 Van Sansul Ave,San Jose,95128,9/28/2007,1175000,Multi-Family,4.9,5485,0.547514474,C,Other,WoodFrame,1959,8,-121.947844,37.30816
1161-1163 Noel Dr,Menlo Park,94025,2/15/2008,1175000,Multi-Family,4.36,3572,0.476203173,C,Other,Unknown,1948,3,-122.1817278,37.4563599
590 Ralston Ave,Belmont,94002,3/28/2008,1164000,Multi-Family,3.3,5354,0.877992785,C,Other,Unknown,1961,7,-122.2746442,37.5220261
992-998 Florida St,San Francisco,94110,10/11/2007,1100000,Multi-Family,7.42,5106,2.931113662,C,Other,WoodFrame,1900,6,-122.410617,37.756094
740 Holmes Ct,Livermore,94550,10/12/2007,1095000,Multi-Family,4.5,6195,0.364669178,B,Other,Unknown,1964,10,-121.7798185,37.6734829
1605 Ontario Dr,Sunnyvale,94087,5/30/2008,1092000,Multi-Family,3.44,2960,0.522783469,C,Other,Unknown,1950,4,-122.0400083,37.3408075
750 Harvard Ave,Santa Clara,95051,5/20/2008,1090000,Multi-Family,3.99,3673,0.468494898,C,Other,Unknown,1968,4,-121.992398,37.3368725
328 D St,San Rafael,94901,10/18/2007,1075000,Multi-Family,3.03,3000,0.61500615,C,Other,WoodFrame,1963,4,-122.5326982,37.9668529
1584 Hollenbeck Ave,Sunnyvale,94087,4/16/2008,1075000,Multi-Family,4.24,4741,0.544191919,C,Other,WoodFrame,1961,6,-122.0411012,37.3415137
70-76 Dutton Ave,San Leandro,94577,4/7/2008,1075000,Multi-Family,5.73,5454,0.4545,C,Other,WoodFrame,1948,8,-122.1593117,37.7315483
1410 Jefferson Ave,Redwood City,94062,2/14/2008,1072500,Multi-Family,5,3276,0.6552,C,Other,WoodFrame,1956,6,-122.233227,37.48075
928 Black Diamond St,Pittsburg,94565,2/14/2008,1060000,Multi-Family,5.75,6458,0.516764023,C,Other,WoodFrame,1944,11,-121.886521,38.0288842
402 E Maude Ave,Sunnyvale,94085,10/16/2007,1050000,Multi-Family,4.5,4316,0.366975597,C,Other,Unknown,1956,6,-122.0222734,37.3867409
5500 San Pablo Ave,Emeryville,94608,5/14/2008,1050000,Multi-Family,5.2,12264,2.663770634,C,Other,Masonry,1913,14,-122.2819349,37.8385221
632 Stannage Ave,Albany,94706,5/8/2008,1050000,Multi-Family,4.25,3635,0.727,C,Other,Unknown,1961,5,-122.298751,37.8945739
2595 Alma St,Palo Alto,94301,11/16/2007,1025000,Multi-Family,3.13,2112,0.269387755,C,Other,Unknown,1953,6,-122.1374634,37.427205
318 N Fairoaks Ave,Sunnyvale,94085,4/15/2008,1025000,Multi-Family,7.32,4556,0.26818931,C,Other,Unknown,1948,6,-122.0179233,37.3823231
812-820 Hopkins Ave,Redwood City,94063,11/28/2007,1012000,Multi-Family,7.69,3478,0.330357143,C,Other,WoodFrame,1940,8,-122.236034,37.490672
935 Santa Clara Ave,Alameda,94501,10/1/2007,975000,Multi-Family,4.7,3887,0.676117586,C,Other,WoodFrame,1915,8,-122.2687561,37.7733553
3069 Pleitner Ave,Oakland,94602,2/29/2008,970000,Multi-Family,6.12,6788,0.735109378,C,Other,WoodFrame,1961,9,-122.212365,37.793243
45 N 8th St,San Jose,95112,9/28/2007,970000,Multi-Family,6.13,7212,0.788455231,C,Other,WoodFrame,1961,16,-121.883962,37.3403217
95 Charter St,Redwood City,94063,10/19/2007,950000,Multi-Family,3.66,4500,0.776263585,C,Good,WoodFrame,1960,7,-122.218615,37.47609
942 Vermont St,Oakland,94610,4/8/2008,950000,Multi-Family,6.04,4221,0.763015184,C,Other,Masonry,1932,8,-122.243073,37.815658
1511 Moorpark Ave,San Jose,95128,11/21/2007,940000,Multi-Family,3.33,3455,0.396579431,B,Other,Masonry,1977,4,-121.916576,37.313879
3819 Barker Dr,San Jose,95117,12/18/2007,929000,Multi-Family,3.84,3852,0.641786071,C,Other,WoodFrame,1963,4,-121.9681364,37.3093638
1738 S Grant St,San Mateo,94402,12/27/2007,900000,Multi-Family,3.5,4310,0.828686791,C,Other,Unknown,1958,5,-122.3027728,37.5563564
700 Dempsey Rd,Milpitas,95035,11/17/2007,900000,Multi-Family,3.75,3574,0.455867347,C,Other,WoodFrame,1977,3,-121.8826443,37.4252853
1074 E 33rd St,Oakland,94610,10/31/2007,895000,Multi-Family,5.49,4716,0.967583094,C,Other,Masonry,1925,9,-122.2350656,37.8027691
3191 Impala Dr,San Jose,95117,10/12/2007,890000,Multi-Family,6.01,3688,0.542034098,C,Other,Masonry,1959,6,-121.952662,37.296186
3183 Impala Dr,San Jose,95117,10/12/2007,890000,Multi-Family,5.74,4622,0.679805854,C,Other,Masonry,1959,6,-121.9524793,37.2961818
3175 Impala Dr,San Jose,95117,10/12/2007,890000,Multi-Family,5.83,4874,0.079582007,C,Other,Masonry,1959,18,-121.9522928,37.2961987
16 Elaine Way,San Rafael,94901,5/30/2008,850000,Multi-Family,6.76,3500,0.468290072,C,Other,WoodFrame,1962,5,-122.5026947,37.9654874
2215 Bonar St,Berkeley,94702,11/1/2007,850000,Multi-Family,9.65,8566,1.008476572,C,Other,Unknown,1960,8,-122.286605,37.866355
90 E 39th Ave,San Mateo,94403,10/16/2007,850000,Multi-Family,4.05,3230,0.494337313,C,Other,ReinforcedConcrete,1954,6,-122.2895366,37.5349124
420 Chestnut St,Redwood City,94063,11/19/2007,840000,Multi-Family,5.48,4365,0.835087048,C,Other,Unknown,1953,7,-122.2218091,37.4816227
1937 26th Ave,Oakland,94601,11/20/2007,790650,Multi-Family,8.77,7650,1.53,C,Other,Masonry,1928,17,-122.232421,37.792346
406 Cedar St,Redwood City,94063,9/27/2007,779500,Multi-Family,4.6,4512,0.9024,C,Other,WoodFrame,1953,5,-122.2227318,37.4818244
3771 Sundale Rd,Lafayette,94549,2/22/2008,750000,Multi-Family,5.6,2771,0.454411282,C,Other,WoodFrame,1956,4,-122.1336775,37.8865919
1112 Alhambra Ave,Martinez,94553,4/4/2008,725000,Multi-Family,4.29,4224,0.8816531,B,Other,Unknown,1925,4,-122.135896,38.013698
23920 2nd St,Hayward,94541,4/1/2008,705000,Multi-Family,4,4992,0.603189947,C,Other,Unknown,1961,8,-122.0750286,37.6717762
71 Marlow Dr,Oakland,94605,1/9/2008,650000,Multi-Family,5.11,3578,0.684522671,C,Other,Unknown,1965,5,-122.1389427,37.7360046
444 Corte Arango,El Sobrante,94803,2/14/2008,650000,Multi-Family,6.28,4271,0.569390748,C,Other,WoodFrame,1967,5,-122.301411,37.974691
1534 Fairview St,Berkeley,94703,1/16/2008,630000,Multi-Family,4.3,3000,0.459136823,C,Other,Unknown,1950,3,-122.276717,37.849759
943 33rd St,Oakland,94608,11/20/2007,515000,Multi-Family,6.75,4371,0.67256501,C,Other,Masonry,1916,6,-122.2769275,37.8240844
2000 Ascot Pky,Vallejo,94591,12/11/2008,54400000,Multi-Family,7.9,448456,0.297032234,C,Other,WoodFrame,1986,560,-122.1934352,38.1097438
38000 Camden St,Fremont,94536,8/6/2008,34500000,Multi-Family,5.3,160894,0.167891727,C,Other,WoodFrame,1969,196,-121.9951952,37.5587368
4875 Mowry Ave,Fremont,94538,11/20/2008,21500000,Multi-Family,5.7,108249,0.442180983,B,Other,WoodFrame,1972,151,-121.998071,37.537862
1029-1061 Meridian Ave,San Jose,95125,8/21/2008,18000000,Multi-Family,5.25,71220,0.437257105,B,Other,Unknown,1964,84,-121.9143064,37.3052442
815 E Fremont Ave,Sunnyvale,94087,8/4/2008,15950000,Multi-Family,4.71,53956,0.589837772,C,Other,WoodFrame,1969,67,-122.0175651,37.3531405
3300 Narvaez Ave,San Jose,95136,4/29/2009,14000000,Multi-Family,6.28,6384,0.006889325,C,Other,Unknown,1967,207,-121.8625874,37.2777398
215 Bayview St,San Rafael,94901,9/30/2008,13900000,Multi-Family,5.75,51300,0.531688864,C,Other,Unknown,1963,90,-122.5340912,37.9671277
1500 Laurel St,San Carlos,94070,6/9/2008,9900000,Multi-Family,4.2,32270,1.163008614,B,Other,ReinforcedConcrete,1999,42,-122.2485615,37.4957331
564 Central Ave,Alameda,94501,3/4/2009,9650000,Multi-Family,5.7,60123,0.955182384,C,Other,WoodFrame,1967,65,-122.2797187,37.770583
6-18 Romar Ct,Novato,94945,3/4/2009,9175000,Multi-Family,6.2,43500,0.232237812,C,Other,Unknown,1962,58,-122.5746758,38.1122438
30 Castlewood Dr,Pittsburg,94565,4/29/2009,8650000,Multi-Family,6.12,63842,0.235628896,A,Other,ReinforcedConcrete,2003,88,-121.8952168,37.995361
471 Acalanes Dr,Sunnyvale,94086,8/13/2008,8125000,Multi-Family,6.11,37069,0.542031613,C,Other,WoodFrame,1963,45,-122.0594748,37.3765539
1901 Shoreline Dr,Alameda,94501,2/27/2009,7400000,Multi-Family,6.17,42300,0.970205739,C,Other,Masonry,1961,38,-122.2606122,37.7584096
24661-24667 Amador St,Hayward,94544,8/29/2008,7100000,Multi-Family,5.74,53412,0.613945148,C,Other,WoodFrame,1962,68,-122.091621,37.65476
3809 20th St,San Francisco,94114,7/23/2008,7000000,Multi-Family,3.3,17552,2.315872806,B,Other,WoodFrame,1922,25,-122.426009,37.758072
2898 Jackson St,San Francisco,94115,7/23/2008,7000000,Multi-Family,4,12240,2.159872949,B,Other,ReinforcedConcrete,1963,14,-122.4426673,37.7916802
60 W Latimer Ave,Campbell,95008,6/20/2008,6535000,Multi-Family,5.9,28996,0.609415721,C,Other,WoodFrame,1963,36,-121.9508828,37.2904594
1301 Leavenworth St,San Francisco,94109,7/23/2008,6500000,Multi-Family,4.2,17740,3.740248788,C,Other,WoodFrame,1907,24,-122.416501,37.793168
2020 Santa Clara Ave,Alameda,94501,5/29/2009,6235000,Multi-Family,5.8,34940,3.342261335,C,Other,Masonry,1970,34,-122.251309,37.768936
3761-3773 High St,Oakland,94619,6/12/2008,5950000,Multi-Family,6.86,50810,0.707670023,C,Other,Masonry,1963,54,-122.191586,37.789421
801 Alvarez Ave,Pinole,94564,8/13/2008,5800000,Multi-Family,7,45450,0.480825179,B,Other,WoodFrame,1965,52,-122.2944721,38.0026325
1040 Leavenworth St,San Francisco,94109,4/22/2009,5800000,Multi-Family,4.87,26886,2.880437112,B,Other,WoodFrame,1907,40,-122.415434,37.790861
1399 Pacific Ave,San Leandro,94577,10/24/2008,5672950,Multi-Family,6.13,57867,1.167167551,C,Other,Masonry,1970,58,-122.166111,37.719586
1655 Pomeroy Ave,Santa Clara,95051,7/18/2008,5500000,Multi-Family,5.2,21200,0.334469267,C,Other,WoodFrame,1962,53,-121.986248,37.353541
1957 California St,Mountain View,94040,6/20/2008,5335000,Multi-Family,5.4,19300,0.587322358,C,Other,WoodFrame,1960,24,-122.0966162,37.3974114
515 Boynton Ave,San Jose,95117,8/29/2008,5170000,Multi-Family,4.49,25000,0.838110564,C,Other,WoodFrame,1970,30,-121.9664911,37.3175368
255 MacArthur Blvd,Oakland,94610,7/11/2008,5070000,Multi-Family,6.18,78618,3.963200081,C,Other,Masonry,1963,44,-122.2523169,37.8155835
1410 Creekside Dr,Walnut Creek,94596,8/12/2008,5000000,Multi-Family,4.37,23450,0.572705515,C,Other,Unknown,1963,22,-122.050201,37.8848946
1100 Lincoln Ave,Walnut Creek,94596,10/17/2008,4900000,Multi-Family,4.58,23552,0.636093556,C,Other,WoodFrame,1962,36,-122.056444,37.900788
4001 Nicolet Ave,Fremont,94536,1/20/2009,4800000,Multi-Family,4.56,28850,0.977171115,C,Other,Unknown,1972,30,-122.0231875,37.5658092
3752-3770 Rolison Rd,Redwood City,94063,7/22/2008,4687500,Multi-Family,6,39000,1.191239806,C,Other,ReinforcedConcrete,1961,91,-122.1843948,37.4840164
1280 Lombard St,San Francisco,94109,6/11/2008,4575000,Multi-Family,4.22,10920,2.310622091,B,Other,WoodFrame,1927,13,-122.4225326,37.8018291
245 Leavenworth St,San Francisco,94102,6/12/2008,4530000,Multi-Family,7.04,26430,4.933731566,B,Other,Masonry,1910,48,-122.4145494,37.7833689
3535 Fillmore St,San Francisco,94123,10/16/2008,4525000,Multi-Family,3.44,12702,2.355712166,B,Other,ReinforcedConcrete,1929,12,-122.4369451,37.8020189
1477 Grove Ave,Burlingame,94010,3/18/2009,4485000,Multi-Family,3.9,25617,1.832141325,C,Other,ReinforcedConcrete,1978,18,-122.3706892,37.5871024
5510-5552 College Ave,Oakland,94618,10/15/2008,4325000,Multi-Family,4.8,13521,2.193899075,B,Other,Masonry,1918,16,-122.2513938,37.8430248
401 Stannage Ave,Albany,94706,12/24/2008,4300000,Multi-Family,4.59,19158,1.90892786,C,Other,Unknown,1970,18,-122.2992803,37.8980281
1445 Lake St,San Francisco,94118,8/8/2008,4250000,Multi-Family,3.76,10536,2.103413855,B,Other,WoodFrame,1964,12,-122.4750997,37.7859962
438 N El Camino Real,San Mateo,94401,9/23/2008,4200000,Multi-Family,5.89,17500,1.094707869,C,Other,ReinforcedConcrete,1960,24,-122.3363515,37.5707004
1201-1209 Divisadero St,San Francisco,94115,9/15/2008,4150000,Multi-Family,6.87,20116,3.21856,B,Other,WoodFrame,1923,21,-122.4391977,37.7807084
1400 McAllister St,San Francisco,94115,7/2/2008,4150000,Multi-Family,4.26,15600,2.558215808,C,Other,Unknown,1928,18,-122.4353046,37.7784622
2010 Trousdale Dr,Burlingame,94010,11/26/2008,4100000,Multi-Family,4.55,16993,0.92092998,C,Other,Unknown,1959,18,-122.3874381,37.5915549
1988 Bellomy St,Santa Clara,95050,9/19/2008,4050000,Multi-Family,4.28,17245,0.494863407,C,Other,WoodFrame,1978,21,-121.954847,37.340031
28 Parker Ave,San Francisco,94118,10/23/2008,3782500,Multi-Family,4.58,13632,2.474047187,C,Other,Unknown,1929,12,-122.4544402,37.785657
401 Fairmount Ave,Oakland,94611,3/26/2009,3675000,Multi-Family,6.1,22902,1.168350168,C,Other,Masonry,1960,35,-122.2568711,37.8191573
1448-1450 Bush St,San Francisco,94109,12/23/2008,3650000,Multi-Family,6,12430,3.52324263,C,Other,Unknown,1980,11,-122.4211275,37.7888534
550 Tyndall St,Los Altos,94022,8/15/2008,3650000,Multi-Family,3.72,12849,0.601995877,C,Other,WoodFrame,1962,11,-122.113255,37.373089
786 Reseda Dr,Sunnyvale,94087,7/18/2008,3650000,Multi-Family,5.95,18000,0.68757401,C,Other,WoodFrame,1964,20,-122.040236,37.367301
51 S 19th St,San Jose,95116,5/27/2009,3600000,Multi-Family,7.56,29776,1.265878752,B,Other,WoodFrame,1961,30,-121.871991,37.343256
221 Noe St,San Francisco,94114,6/6/2008,3550000,Multi-Family,3.9,9840,1.964463965,C,Other,WoodFrame,1908,12,-122.4330373,37.7655172
719 Fillmore St,San Francisco,94117,6/26/2008,3450000,Multi-Family,5.31,11286,2.218596422,C,Other,WoodFrame,1923,22,-122.431445,37.776098
1244-1246 Hearst Ave,Berkeley,94702,5/27/2009,3325000,Multi-Family,6,13852,0.710942312,C,Other,WoodFrame,1918,23,-122.2888448,37.8706345
269 Junction Ave,Livermore,94551,9/3/2008,3300000,Multi-Family,6.29,19866,0.494646681,C,Other,WoodFrame,1966,22,-121.766285,37.68634
3390 El Camino Real,Santa Clara,95051,12/23/2008,3300000,Multi-Family,4.57,17988,0.558044301,C,Other,Unknown,1961,34,-121.9890269,37.3517624
2525 Benvenue Ave,Berkeley,94704,6/11/2008,3300000,Multi-Family,5.41,18688,2.343322884,C,Other,WoodFrame,1965,16,-122.2545945,37.864658
220 Perkins St,Oakland,94610,8/29/2008,3275400,Multi-Family,5.56,23408,2.035655274,C,Other,Masonry,1971,21,-122.255334,37.814963
2328 Seminary Ave,Oakland,94605,7/29/2008,3242500,Multi-Family,8.36,34956,1.035886798,C,Other,WoodFrame,1965,45,-122.1923486,37.7695201
720-738 Sutter Ave,Palo Alto,94303,12/5/2008,3200000,Multi-Family,5.01,9280,0.394524275,C,Other,Unknown,1953,10,-122.1257002,37.4327827
1540-1566 Jones St,San Francisco,94109,5/28/2009,3200000,Multi-Family,2.5,26757,3.233083615,C,Other,Unknown,1910,15,-122.4147944,37.7956482
1750 Mission St,San Francisco,94103,12/24/2008,3150000,Multi-Family,6.9,12600,2.729044834,B,Other,WoodFrame,1912,27,-122.420469,37.769027
274 40th St,Oakland,94611,8/12/2008,3075000,Multi-Family,6.22,14520,1.161507079,C,Other,Masonry,1962,22,-122.2557767,37.8275841
1536 Oxford St,Berkeley,94709,6/6/2008,3000712,Multi-Family,3.68,8892,0.767477991,C,Other,WoodFrame,1889,8,-122.267252,37.879118
1924 Church Ln,San Pablo,94806,12/19/2008,3000000,Multi-Family,2.9,42003,0.918339237,B,Other,ReinforcedConcrete,1991,54,-122.340889,37.957506
630 Corbett Ave,San Francisco,94114,11/19/2008,2962500,Multi-Family,3.56,10803,2.787151703,C,Good,WoodFrame,1960,10,-122.4436565,37.7566938
1300 Palos Verdes Dr,San Mateo,94403,7/23/2008,2950000,Multi-Family,7.17,14034,1.00681541,C,Other,Unknown,1964,13,-122.3267976,37.5316117
566 Fell St,San Francisco,94102,10/29/2008,2950000,Multi-Family,4.85,12400,1.897765534,C,Other,Masonry,1925,16,-122.4272267,37.7755693
666 Bernal Ave,Sunnyvale,94085,7/31/2008,2930000,Multi-Family,5.28,14308,0.483051992,C,Other,WoodFrame,1960,20,-122.013234,37.3900705
750 14th St,San Francisco,94114,1/13/2009,2919000,Multi-Family,6.87,12303,2.567939887,C,Other,Unknown,1923,12,-122.4302872,37.7678721
2833 High St,Oakland,94619,10/15/2008,2900000,Multi-Family,6.68,31720,1.50767622,C,Other,WoodFrame,1962,39,-122.2021527,37.7841273
1701 Turk St,San Francisco,94115,6/17/2008,2830000,Multi-Family,4.84,12138,2.786501377,C,Other,WoodFrame,1927,18,-122.4372961,37.7797161
701 9th Ave,Redwood City,94063,11/18/2008,2815000,Multi-Family,5.93,16146,0.950435602,C,Other,WoodFrame,1962,24,-122.1970014,37.4777364
200 O'Keefe St,Menlo Park,94025,8/29/2008,2800000,Multi-Family,3.06,17355,0.869924812,C,Other,WoodFrame,1967,17,-122.150055,37.462037
2095 Radio Ave,San Jose,95125,10/15/2008,2760000,Multi-Family,4.62,14955,0.738336213,C,Other,WoodFrame,1964,20,-121.8915897,37.2917105
1376 Creekside Dr,Walnut Creek,94596,4/13/2009,2750000,Multi-Family,5.57,13800,0.720025044,C,Other,Unknown,1960,18,-122.0505765,37.8837369
1440 Hudson St,Redwood City,94061,6/23/2008,2750000,Multi-Family,4.89,17128,0.819207959,C,Other,Unknown,1961,13,-122.227708,37.470172
3568 Agate Dr,Santa Clara,95051,6/10/2008,2750000,Multi-Family,4.98,13416,0.479211316,C,Other,WoodFrame,1961,20,-121.9951454,37.3693598
102-110 Merrydale Rd,San Rafael,94903,10/1/2008,2725000,Multi-Family,4.61,12650,0.310826085,C,Other,Unknown,1946,15,-122.5332517,37.9943308
19991 Santa Maria Ave,Castro Valley,94546,6/12/2008,2675000,Multi-Family,4.69,15800,0.390027154,C,Other,Unknown,1971,14,-122.0787967,37.6997612
1044-1046 Noel Dr,Menlo Park,94025,7/25/2008,2615000,Multi-Family,4.2,4720,0.347314202,C,Other,Unknown,1949,8,-122.181147,37.455788
565 Saratoga Ave,Santa Clara,95050,12/18/2008,2600000,Multi-Family,4.7,11084,0.409094264,C,Other,WoodFrame,1969,16,-121.955285,37.33986
190 27th Ave,San Francisco,94121,10/1/2008,2560000,Multi-Family,3.37,7425,2.435224664,C,Other,Unknown,1921,6,-122.4871485,37.7859149
1191 Brace Ave,San Jose,95125,2/27/2009,2554200,Multi-Family,5.6,13203,0.632782171,C,Other,Unknown,1968,13,-121.902454,37.303888
738 Stockton St,San Francisco,94108,7/8/2008,2548000,Multi-Family,5.5,9520,5.291828794,C,Other,Masonry,1908,12,-122.407484,37.792835
115 Haight St,San Francisco,94102,12/23/2008,2475000,Multi-Family,5.11,10400,2.456306094,C,Other,WoodFrame,1908,17,-122.424281,37.772602
455 S 8th St,San Jose,95112,8/14/2008,2460000,Multi-Family,5.99,9008,0.713109563,C,Other,WoodFrame,1960,13,-121.878143,37.332566
1360-1364 Valencia St,San Francisco,94110,3/27/2009,2430000,Multi-Family,5.51,10928,3.745030843,C,Other,WoodFrame,1904,14,-122.4208512,37.7510621
1020 Elm St,San Jose,95126,1/30/2009,2415000,Multi-Family,6.44,34500,1.760024487,C,Other,WoodFrame,1958,23,-121.922322,37.345117
29009 Dixon St,Hayward,94544,8/22/2008,2350000,Multi-Family,7.2,14814,0.568719287,B,Other,WoodFrame,1992,15,-122.0559485,37.6331955
1445-1455 Kerley Dr,San Jose,95112,12/31/2008,2320000,Multi-Family,4,12480,0.573002755,C,Other,WoodFrame,1959,20,-121.909038,37.363278
444 Lee St,Oakland,94610,8/29/2008,2300000,Multi-Family,5.6,12507,1.994100765,C,Other,Masonry,1916,20,-122.2565739,37.8097523
4819 Clayton Rd,Concord,94521,10/16/2008,2300000,Multi-Family,7,13082,0.476714525,C,Other,WoodFrame,1963,20,-121.978083,37.960031
3500 Fulton St,San Francisco,94118,2/12/2009,2280000,Multi-Family,4.54,9195,2.454618259,C,Other,Unknown,1926,14,-122.4693563,37.7734171
1043-1053 Fell St,San Francisco,94117,11/7/2008,2240000,Multi-Family,2.89,5527,1.339878788,C,Other,WoodFrame,1900,9,-122.4351437,37.7742071
323 Torino Dr,San Carlos,94070,7/8/2008,2218125,Multi-Family,4.52,12132,0.303391017,C,Other,Unknown,1962,10,-122.2772241,37.4932627
3042 Sacramento St,San Francisco,94115,3/26/2009,2205000,Multi-Family,5.18,6620,1.729362591,C,Other,WoodFrame,1906,7,-122.4430811,37.7889482
401 Ash St,Mill Valley,94941,10/24/2008,2200000,Multi-Family,4.03,6558,0.590864042,C,Other,Unknown,1960,10,-122.5369561,37.8794841
3550 23rd St,San Francisco,94110,10/10/2008,2200000,Multi-Family,5.84,7530,1.573010236,C,Other,WoodFrame,1958,8,-122.4226811,37.7538369
27500 Tampa Ave,Hayward,94544,6/3/2008,2150000,Multi-Family,8,17890,0.570417371,C,Other,WoodFrame,1964,19,-122.0752039,37.6328421
524 Dudley Ave,San Jose,95128,2/25/2009,2125000,Multi-Family,6,9858,0.685821622,C,Other,WoodFrame,1956,16,-121.9466227,37.3178568
920 Haight St,San Francisco,94117,6/17/2008,2100000,Multi-Family,7.14,6075,2.159616068,C,Other,Unknown,1904,4,-122.4375949,37.7714719
450 Alcatraz Ave,Oakland,94609,6/18/2008,2100000,Multi-Family,6.7,12297,1.526061057,C,Other,Masonry,1963,16,-122.258685,37.850656
851 Highland Ave,San Mateo,94401,10/1/2008,2100000,Multi-Family,3.34,6500,0.531045752,C,Other,Unknown,1971,8,-122.3406336,37.5752717
951-955 Karol Way,San Leandro,94577,10/10/2008,2097500,Multi-Family,8.29,18600,0.5,C,Other,Masonry,1961,19,-122.1546889,37.7283624
2295 Latham St,Mountain View,94040,12/29/2008,2075000,Multi-Family,3.8,14544,1.043403401,C,Other,Unknown,1963,10,-122.1051208,37.3987412
271 Jayne Ave,Oakland,94610,9/30/2008,2050000,Multi-Family,6.16,11973,1.469981584,C,Other,Masonry,1960,15,-122.256623,37.813183
6116 Telegraph Ave,Oakland,94609,6/19/2008,2000000,Multi-Family,6.02,11351,1.128554385,B,Other,ReinforcedConcrete,1989,17,-122.2605157,37.847665
800 Church St,San Francisco,94114,1/12/2009,1995000,Multi-Family,1.65,5945,2.201851852,C,Other,Unknown,1925,11,-122.4282544,37.7579341
753 Ehrhorn Ave,Mountain View,94041,6/19/2008,1975000,Multi-Family,4.98,6322,0.4535476,C,Other,Unknown,1974,10,-122.077744,37.3836166
852 Division St,Pleasanton,94566,9/19/2008,1975000,Multi-Family,6.01,9240,0.522861023,C,Other,Unknown,1970,12,-121.881751,37.664803
501-507 30th St,San Francisco,94131,12/10/2008,1960000,Multi-Family,7.94,5735,1.14493911,C,Other,WoodFrame,1910,6,-122.430937,37.741654
1518 Oxford St,Redwood City,94061,11/26/2008,1945000,Multi-Family,6,14426,0.809539843,C,Other,Unknown,1961,11,-122.2269669,37.46836
381 Oakland Ave,Oakland,94611,8/27/2008,1923545,Multi-Family,6.38,12594,2.628678773,C,Other,WoodFrame,1925,24,-122.256091,37.817433
7020 Redwood Blvd,Novato,94945,12/12/2008,1900000,Multi-Family,5.52,10133,0.704953388,C,Other,Unknown,1965,17,-122.5645637,38.0981229
141 Broderick St,San Francisco,94117,11/17/2008,1900000,Multi-Family,4.7,6768,1.969732247,C,Good,Unknown,1904,6,-122.439085,37.77149
1336 Creekside Dr,Walnut Creek,94596,2/19/2009,1900000,Multi-Family,4.7,8900,0.567565844,C,Other,Unknown,1960,10,-122.0504347,37.8823776
120 Park St,San Rafael,94901,4/10/2009,1900000,Multi-Family,6.72,9600,0.935490158,C,Other,Unknown,1971,10,-122.513496,37.973601
373 Staten Ave,Oakland,94610,2/19/2009,1885000,Multi-Family,6.25,12889,2.06224,C,Other,WoodFrame,1967,13,-122.2543105,37.8113258
184 Locksley Ave,San Francisco,94122,9/16/2008,1875000,Multi-Family,4.89,4912,0.847919903,C,Other,WoodFrame,1964,6,-122.462648,37.756966
24 Kent Pl,Menlo Park,94025,6/5/2008,1875000,Multi-Family,3.86,4625,0.388655462,C,Other,Unknown,1955,6,-122.1706521,37.4543679
372 Camille Ct,Mountain View,94040,7/23/2008,1865000,Multi-Family,3.93,5480,0.503213958,C,Other,WoodFrame,1953,12,-122.080183,37.382512
2030 Miramonte Ave,San Leandro,94578,9/18/2008,1860000,Multi-Family,5.7,9650,0.549732255,C,Other,Masonry,1991,10,-122.105605,37.698976
2825 Van Ness Ave,San Francisco,94109,5/14/2009,1850000,Multi-Family,4.39,7125,2.596574344,C,Other,WoodFrame,1924,9,-122.42492,37.801658
1412 El Camino Real,Burlingame,94010,7/16/2008,1850000,Multi-Family,4.26,6450,0.919720519,C,Good,ReinforcedConcrete,1960,9,-122.371481,37.587593
1765 Vallejo St,San Francisco,94123,2/6/2009,1800000,Multi-Family,3.7,6870,1.577134986,C,Other,WoodFrame,1900,9,-122.42629,37.7961491
5570 Mission St,San Francisco,94112,7/17/2008,1800000,Multi-Family,5.77,8020,1.166884912,C,Other,ReinforcedConcrete,1959,12,-122.4459,37.711994
2689-2699 Bryant St,San Francisco,94110,12/12/2008,1800000,Multi-Family,11.9,8970,2.394554191,B,Other,WoodFrame,1900,6,-122.4087838,37.7513899
164 El Dorado Ave,Danville,94526,7/30/2008,1800000,Multi-Family,4.51,6003,0.400146647,C,Other,WoodFrame,1986,7,-121.9988901,37.8189112
1502 Alice St,Oakland,94612,3/31/2009,1795000,Multi-Family,8,13200,2.085637541,C,Other,Masonry,1910,26,-122.2651667,37.8037937
841 Solano Ave,Albany,94706,7/31/2008,1745000,Multi-Family,4.25,5524,1.102814933,C,Other,WoodFrame,1959,8,-122.304027,37.889535
57 Berkshire Ave,Redwood City,94063,8/15/2008,1735000,Multi-Family,5.5,10363,1.286051129,C,Other,Unknown,1977,8,-122.211328,37.470352
2156 Carlmont Dr,Belmont,94002,11/25/2008,1710000,Multi-Family,4.53,8432,0.648715187,C,Other,Unknown,1964,7,-122.2957486,37.5097123
1414 Kansas St,San Francisco,94107,6/4/2008,1700000,Multi-Family,7.1,4016,1.22926232,C,Other,Unknown,1963,8,-122.4024625,37.7515542
610 Masonic Way,Belmont,94002,10/21/2008,1690000,Multi-Family,5.16,9233,0.923207679,C,Other,Unknown,1963,10,-122.2747487,37.5230649
3823 Harrison St,Oakland,94611,10/16/2008,1664000,Multi-Family,5.14,13566,1.63919768,C,Other,WoodFrame,1961,15,-122.251353,37.821593
1625 Central Ave,Alameda,94501,6/20/2008,1625000,Multi-Family,5.9,8597,0.634418124,C,Other,Masonry,1889,8,-122.2574381,37.7708625
618 Ansel Rd,Burlingame,94010,9/12/2008,1620000,Multi-Family,3.48,9848,1.560450008,C,Other,Unknown,1960,5,-122.3532277,37.5804531
430-436 89th St,Daly City,94015,2/27/2009,1600000,Multi-Family,6.5,10148,2.043907351,C,Other,WoodFrame,1964,8,-122.475957,37.692046
1450 San Antonio Ave,Menlo Park,94025,12/5/2008,1600000,Multi-Family,2.89,8278,0.86382135,C,Other,Unknown,1964,7,-122.1876976,37.4574857
1691 164th Ave,San Leandro,94578,8/29/2008,1600000,Multi-Family,5.81,10816,0.546207454,C,Other,WoodFrame,1964,12,-122.1097578,37.6988925
1536 Fruitvale Ave,Oakland,94601,7/18/2008,1600000,Multi-Family,6.04,13496,1.106592325,C,Other,Masonry,1958,20,-122.224529,37.779382
968 Addison St,Berkeley,94710,1/29/2009,1565000,Multi-Family,7.2,11672,0.583658366,C,Other,WoodFrame,1943,18,-122.2944761,37.8671018
10331 Leola Dr,Cupertino,95014,7/18/2008,1527500,Multi-Family,3.29,5318,0.469580574,C,Other,Unknown,1963,4,-122.012579,37.3185472
4527 Bancroft Ave,Oakland,94601,9/30/2008,1510000,Multi-Family,7.3,14544,0.629992203,C,Other,WoodFrame,1987,18,-122.2114263,37.7721727
232 S Shoreline Blvd,Mountain View,94041,9/26/2008,1507000,Multi-Family,5.65,4643,0.562787879,C,Other,WoodFrame,1956,8,-122.0839797,37.395145
242 Divisadero St,San Francisco,94117,1/15/2009,1506000,Multi-Family,4.87,6108,2.418052257,C,Other,WoodFrame,1913,7,-122.4367618,37.7711114
829 San Anselmo Ave,San Anselmo,94960,9/26/2008,1503000,Multi-Family,4.8,3400,0.435618193,B,Other,Unknown,1988,5,-122.5657016,37.9770064
1012-1016 Masonic St,San Francisco,94117,6/30/2008,1480000,Multi-Family,5.62,5040,2.516225662,C,Other,WoodFrame,1904,6,-122.445378,37.771873
1305 Everett Ave,Oakland,94602,1/15/2009,1475000,Multi-Family,6.18,5620,1.02163243,C,Other,Unknown,1922,8,-122.2189592,37.8084922
281 Haas Ave,San Leandro,94577,2/10/2009,1475000,Multi-Family,5.91,11250,1.004553978,C,Other,Masonry,1965,12,-122.15557,37.729388
1706 Steiner St,San Francisco,94115,9/16/2008,1472500,Multi-Family,4.56,5860,1.938471717,C,Other,Unknown,1922,7,-122.4344738,37.7852143
209 Sanchez St,San Francisco,94114,11/4/2008,1452000,Multi-Family,5.18,4137,1.124184783,C,Other,WoodFrame,1905,6,-122.4307462,37.765513
430 California St,Santa Clara,95050,3/13/2009,1446000,Multi-Family,6.83,6080,0.641485545,C,Other,WoodFrame,1959,8,-121.9534277,37.3397147
1416 Regent St,Redwood City,94061,11/6/2008,1440000,Multi-Family,5.59,8602,0.716833333,C,Other,Unknown,1964,8,-122.2295093,37.4689167
69-71 Pearl St,San Francisco,94103,2/5/2009,1425000,Multi-Family,3.35,6711,2.568312285,C,Other,WoodFrame,1907,6,-122.4237067,37.7703203
3154 Mission St,San Francisco,94110,11/26/2008,1425000,Multi-Family,5.42,10669,1.811682798,C,Other,Unknown,1924,9,-122.4194314,37.7468752
1604-1628 164th Ave,San Leandro,94578,11/21/2008,1400000,Multi-Family,6.99,10918,0.340878579,C,Other,WoodFrame,1963,13,-122.108885,37.697964
248 Cabrillo St,San Francisco,94118,2/11/2009,1395000,Multi-Family,6.67,5925,1.949013158,C,Other,Masonry,1914,6,-122.4615568,37.7756285
40 22nd Ave,San Mateo,94403,11/17/2008,1350000,Multi-Family,4.15,8100,0.994475138,C,Other,Unknown,1950,5,-122.3088529,37.5461982
2655 Miller Ave,Mountain View,94040,7/10/2008,1340000,Multi-Family,5.07,5937,0.706954037,C,Other,WoodFrame,1960,7,-122.1132391,37.4056993
2893-2899 24th St,San Francisco,94110,9/12/2008,1331000,Multi-Family,5.62,7656,1.902584493,B,Other,WoodFrame,1900,6,-122.409921,37.7525877
1045 Williams Way,Mountain View,94040,9/22/2008,1328000,Multi-Family,3,3687,0.460817398,C,Other,Unknown,1964,4,-122.0614244,37.3734544
710 N Claremont St,San Mateo,94401,7/22/2008,1300000,Multi-Family,4.36,6540,0.829528158,C,Other,Unknown,1960,5,-122.3328601,37.5775931
3683 Willow Pass Rd,Concord,94519,12/24/2008,1300000,Multi-Family,6.74,14006,0.757122007,C,Other,Unknown,1960,18,-122.009851,37.987132
1528 S Claremont St,San Mateo,94402,6/24/2008,1300000,Multi-Family,4.64,4600,0.403084472,C,Other,ReinforcedConcrete,1959,8,-122.310595,37.556637
223 Meridian Ave,San Jose,95126,11/19/2008,1300000,Multi-Family,4.69,6158,0.621957378,B,Other,Masonry,1957,8,-121.9140227,37.3251228
668-672A Capp St,San Francisco,94110,2/6/2009,1300000,Multi-Family,5.39,5400,1.826175178,C,Other,Unknown,1927,4,-122.4179602,37.7560363
445-449 Tehama St,San Francisco,94103,7/22/2008,1285000,Multi-Family,3.18,5940,1.47761194,C,Other,WoodFrame,1907,9,-122.4053784,37.7801538
455 Esplanade,Pacifica,94044,7/1/2008,1275000,Multi-Family,7.86,5100,0.709614582,C,Other,ReinforcedConcrete,1959,8,-122.492509,37.650167
270 Van Buren Ave,Oakland,94610,6/26/2008,1272500,Multi-Family,4.68,5976,0.853714286,C,Other,WoodFrame,1956,6,-122.2570948,37.8113445
765 Kingston Ave,Oakland,94611,11/5/2008,1250000,Multi-Family,5.3,5184,0.915577534,C,Other,Masonry,1965,9,-122.249611,37.823587
263 Waverly St,Sunnyvale,94086,8/5/2008,1250000,Multi-Family,3.72,3276,0.455,C,Other,WoodFrame,1963,6,-122.037992,37.376463
717-719 Linden Ave,South San Francisco,94080,1/13/2009,1250000,Multi-Family,5.63,5806,0.829428571,C,Other,Unknown,1950,6,-122.4088078,37.659773
593 Saratoga Ave,Santa Clara,95050,5/7/2009,1250000,Multi-Family,5.77,3524,0.532245884,C,Other,WoodFrame,1950,8,-121.954231,37.341568
194 Tunstead Ave,San Anselmo,94960,6/27/2008,1245000,Multi-Family,5.51,4400,0.651755296,C,Other,Unknown,1968,5,-122.5651955,37.9739721
210 27th St,San Francisco,94131,1/16/2009,1239500,Multi-Family,5.42,3530,1.620752984,C,Other,Unknown,1964,4,-122.4251944,37.7471976
3038 Yolo Ave,El Cerrito,94530,7/23/2008,1213000,Multi-Family,4.99,6821,0.749642818,C,Other,WoodFrame,1960,7,-122.307843,37.9018765
1460 S Van Ness Ave,San Francisco,94110,11/10/2008,1200000,Multi-Family,5.2,3196,1.048212529,C,Other,WoodFrame,1959,4,-122.416341,37.74981
133 Cook St,San Francisco,94118,4/1/2009,1200000,Multi-Family,5.52,3972,1.321797005,C,Other,WoodFrame,1969,6,-122.452315,37.781344
417 1st St,San Rafael,94901,7/10/2008,1187000,Multi-Family,5.75,4802,0.640181309,C,Other,Unknown,1952,8,-122.535812,37.971288
1236 Brookfield Ave,Sunnyvale,94087,6/30/2008,1175000,Multi-Family,3.29,4116,0.325839139,C,Other,WoodFrame,1956,6,-122.058755,37.370291
1640 Stokes St,San Jose,95126,9/25/2008,1175000,Multi-Family,5.22,4640,0.591836735,C,Other,Masonry,1963,8,-121.922446,37.301249
1137 El Camino Real,Burlingame,94010,12/9/2008,1165000,Multi-Family,5.72,3280,0.54684895,C,Other,Unknown,1912,5,-122.36571,37.583527
918 Mission Ave,San Rafael,94901,12/17/2008,1160000,Multi-Family,4.5,3500,0.412055569,C,Other,Unknown,1892,6,-122.525789,37.974889
868 Park Dr,Mountain View,94040,12/31/2008,1150000,Multi-Family,4.5,3290,0.561625128,C,Other,Unknown,1954,7,-122.0857457,37.3859928
37387 Cherry St,Newark,94560,1/16/2009,1150000,Multi-Family,6.8,9576,0.560393258,C,Other,WoodFrame,1971,11,-122.028993,37.530046
2065 Jackson St,Santa Clara,95050,10/2/2008,1140000,Multi-Family,6.02,4312,0.553033218,C,Other,WoodFrame,1958,8,-121.952571,37.359326
2214 Durant Ave,Berkeley,94704,1/16/2009,1130000,Multi-Family,4.33,5925,1.360192837,C,Other,ReinforcedConcrete,1914,6,-122.2650694,37.8667884
1140 Sanchez St,San Francisco,94114,5/15/2009,1100000,Multi-Family,3.82,3490,1.335629545,B,Other,WoodFrame,1923,4,-122.429807,37.750976
440 Ash St,Redwood City,94061,6/10/2008,1085000,Multi-Family,5.41,5412,1.0824,C,Other,WoodFrame,1958,7,-122.2224413,37.4715686
1330 Mt Pisgah Rd,Walnut Creek,94596,12/23/2008,1070000,Multi-Family,4.25,4580,0.808901448,C,Other,WoodFrame,1960,6,-122.0570921,37.8993201
2619 High St,Oakland,94619,2/3/2009,1065000,Multi-Family,7.1,9518,0.945935202,C,Other,Masonry,1964,12,-122.204059,37.782943
61-69 Camelback Ct,Pleasant Hill,94523,4/16/2009,1060000,Multi-Family,5.7,5915,0.410763889,C,Other,Unknown,1972,5,-122.0737269,37.9754147
518 19th Ave,San Mateo,94403,2/3/2009,1050000,Multi-Family,6.47,5440,0.693877551,C,Other,WoodFrame,1958,7,-122.303283,37.55178
33 San Carlos St,San Francisco,94110,12/24/2008,1049000,Multi-Family,5.57,4050,2.026013007,B,Other,WoodFrame,1910,6,-122.4199913,37.7622427
806 Fulton St,Redwood City,94061,5/13/2009,1030000,Multi-Family,5.15,4441,0.630107832,C,Other,WoodFrame,1959,7,-122.2334014,37.4771486
641 Kirkland Dr,Sunnyvale,94087,3/18/2009,1025000,Multi-Family,5.6,4884,0.533945556,C,Other,WoodFrame,1961,6,-122.0373049,37.3410323
426 Lee St,Oakland,94610,12/29/2008,1025000,Multi-Family,5.42,4182,0.806868609,C,Other,Unknown,1930,4,-122.2564014,37.8101174
7900 Ney Ave,Oakland,94605,8/1/2008,1020000,Multi-Family,9.24,10187,0.754648492,C,Other,WoodFrame,1963,11,-122.165397,37.766092
25065 Cypress Ave,Hayward,94544,12/23/2008,1020000,Multi-Family,7.15,6400,0.539174389,C,Other,Masonry,1962,8,-122.087357,37.650622
1516 1st Ave,Oakland,94606,11/21/2008,1000000,Multi-Family,7,7264,2.077209036,C,Other,WoodFrame,1913,12,-122.255749,37.799376
644 Kodiak Ct,Sunnyvale,94087,6/11/2008,1000000,Multi-Family,2.76,3176,0.5208265,C,Other,WoodFrame,1962,4,-122.037947,37.338983
17964 Meekland Ave,Hayward,94541,6/18/2008,1000000,Multi-Family,3.52,4920,0.194743509,C,Other,Masonry,1960,8,-122.1143916,37.6820801
25057 Cypress Ave,Hayward,94544,1/5/2009,980000,Multi-Family,6.64,6400,0.539174389,C,Other,Masonry,1962,8,-122.087468,37.650787
485 Stow Ave,Oakland,94606,7/31/2008,965000,Multi-Family,4.41,6207,1.443824145,C,Other,WoodFrame,1962,7,-122.2497219,37.803957
1113 2nd St,Novato,94945,8/12/2008,960000,Multi-Family,3.65,4032,0.544496962,C,Other,Unknown,1963,5,-122.5719288,38.1106373
517 Linden Ave,South San Francisco,94080,11/25/2008,940000,Multi-Family,5.96,5344,1.618903363,C,Other,WoodFrame,1947,5,-122.4094328,37.6578931
491 Leigh Ave,San Jose,95128,3/18/2009,935000,Multi-Family,6.62,3480,0.570678911,C,Other,Unknown,1956,8,-121.9240726,37.3198732
243 Orange St,Oakland,94610,7/22/2008,925000,Multi-Family,4.51,4284,0.750262697,C,Other,WoodFrame,1920,7,-122.2570854,37.8159555
43101-43107 Mayfair Park Ave,Fremont,94538,8/29/2008,917000,Multi-Family,4.23,3738,0.317830116,C,Other,WoodFrame,1968,4,-121.964485,37.514447
1719-1721 Folsom St,San Francisco,94103,2/13/2009,917000,Multi-Family,6.55,3000,1.377410468,B,Other,Unknown,1916,4,-122.4152911,37.7693671
30 S 8th St,San Jose,95112,12/23/2008,897500,Multi-Family,7.45,4356,0.699309681,C,Other,WoodFrame,1910,10,-121.8824422,37.3392305
1746 S Grant St,San Mateo,94402,8/5/2008,875000,Multi-Family,5.76,5286,1.016343011,C,Other,Unknown,1958,5,-122.302624,37.556084
2127 Fruitdale Ave,San Jose,95128,6/5/2008,860000,Multi-Family,7.11,3900,0.629235237,C,Other,Unknown,1960,6,-121.92995,37.310965
3249 Williamsburg Dr,San Jose,95117,4/16/2009,849500,Multi-Family,5.06,3222,0.353599649,C,Other,WoodFrame,1962,4,-121.95418,37.2980585
1515 Leavenworth St,San Francisco,94109,2/5/2009,825000,Multi-Family,8.65,3660,1.398547956,C,Other,WoodFrame,1909,9,-122.4167825,37.7950744
749 Wilbur Ave,Antioch,94509,11/20/2008,810000,Multi-Family,7.05,6500,0.055887537,C,Other,WoodFrame,1924,10,-121.8025661,38.0127083
70 Buckingham Ave,Redwood City,94063,2/24/2009,800000,Multi-Family,6.04,3502,0.667301829,C,Other,Unknown,1960,5,-122.2146454,37.4725907
2369 Karen Dr,Santa Clara,95050,9/19/2008,790000,Multi-Family,3.18,2408,0.307142857,C,Other,Masonry,1959,4,-121.9663435,37.3433949
645 Laurel St,Redwood City,94063,4/28/2009,770000,Multi-Family,4.64,3908,0.808273009,C,Other,Unknown,1954,6,-122.217011,37.482087
500-505 Columbia Ave,Sunnyvale,94085,8/6/2008,762000,Multi-Family,4.81,3024,0.408372721,C,Other,WoodFrame,1957,5,-122.020511,37.385123
1253 Jefferson Ave,Redwood City,94062,6/24/2008,750000,Multi-Family,6.8,5098,0.900388555,C,Other,Unknown,1964,5,-122.2310268,37.4818716
743 Liberty St,El Cerrito,94530,7/18/2008,748000,Multi-Family,6.89,3058,0.468013468,C,Other,Unknown,1957,4,-122.3032135,37.9083347
1521-1523 Fairview St,Berkeley,94703,7/31/2008,729000,Multi-Family,5.56,4396,0.646565671,C,Other,WoodFrame,1946,6,-122.277298,37.85005
2117-2119 Sacramento St,Berkeley,94702,5/8/2009,729000,Multi-Family,7.1,2888,0.850161908,C,Good,Unknown,1921,4,-122.281551,37.869115
2418 High St,Oakland,94601,8/1/2008,725000,Multi-Family,8.4,5200,0.701849102,C,Other,ReinforcedConcrete,1987,10,-122.2052951,37.780909
190 Boston Ave,San Jose,95128,9/12/2008,723900,Multi-Family,6.34,3120,0.551042035,C,Other,WoodFrame,1957,6,-121.9275684,37.3266913
1601 Alvarado Ave,Walnut Creek,94597,4/16/2009,685000,Multi-Family,4.43,2972,0.682277319,B,Other,WoodFrame,1972,4,-122.067498,37.91408
411 E O St,Benicia,94510,2/9/2009,675000,Multi-Family,7.82,3240,0.437837838,C,Other,Unknown,1968,4,-122.147119,38.053503
1544 38th Ave,Oakland,94601,7/16/2008,600000,Multi-Family,4,4766,0.696987423,C,Other,WoodFrame,1959,6,-122.21856,37.776044
57 S 19th St,San Jose,95116,5/27/2009,550000,Multi-Family,4,1984,0.131564987,C,Other,WoodFrame,1920,3,-121.871507,37.3433387
909 Aileen St,Oakland,94608,5/22/2009,470000,Multi-Family,6.99,4053,0.710803227,C,Other,Unknown,1919,5,-122.275074,37.840691
522 16th St,Richmond,94801,5/8/2009,420000,Multi-Family,7.9,3260,0.57576828,C,Other,Unknown,1984,5,-122.3541781,37.9390165
2040 87th Ave,Oakland,94621,5/1/2009,255000,Multi-Family,11.8,3840,0.727962085,C,Other,Unknown,1964,4,-122.167958,37.755088
4800 Tassajara Rd,Dublin,94568,9/8/2009,79700000,Multi-Family,6.6,486856,1.350329778,B,Other,WoodFrame,2003,390,-121.872979,37.709021
5505 Springhouse Dr,Pleasanton,94588,11/9/2009,51000000,Multi-Family,6.76,444042,0.69274944,B,Good,WoodFrame,1983,354,-121.882997,37.690067
355 N Wolfe Rd,Sunnyvale,94085,10/16/2009,43800000,Multi-Family,6.24,204060,0.679909905,B,Other,WoodFrame,1991,192,-122.0139414,37.3823966
373 River Oaks Cir,San Jose,95134,8/11/2009,42250000,Multi-Family,7,289678,0.744692666,B,Other,WoodFrame,1991,226,-121.9251533,37.4025067
509 Poplar Ave,Millbrae,94030,9/15/2009,33782500,Multi-Family,5.65,116945,0.534266226,C,Other,Unknown,1971,136,-122.3988857,37.6022423
621-655 Old County Rd,Belmont,94002,10/22/2009,28800000,Multi-Family,7.5,170056,0.830984539,C,Other,WoodFrame,1968,198,-122.2790562,37.5244127
130 Cielo Ln,Novato,94949,5/28/2010,16055000,Multi-Family,5.9,75666,0.281077266,C,Other,WoodFrame,1998,88,-122.5345181,38.057647
2001 Pierce St,San Francisco,94115,8/28/2009,14400000,Multi-Family,5.5,42680,4.419592006,B,Good,WoodFrame,1928,45,-122.4373927,37.7887506
30 Dore St,San Francisco,94103,4/27/2010,12808000,Multi-Family,5.06,22947,2.663300836,B,Other,ReinforcedConcrete,2007,42,-122.4134531,37.7739527
1735 Van Ness Ave,San Francisco,94109,8/28/2009,8200000,Multi-Family,6,38000,5.221214619,B,Other,Masonry,1928,17,-122.4228773,37.7917966
4130-4140 Cesar Chavez St,San Francisco,94131,11/10/2009,7100000,Multi-Family,8.3,28221,1.423577482,C,Other,WoodFrame,1964,40,-122.4323134,37.7475134
75 E Buena Vista Ave,San Francisco,94117,3/9/2010,6800000,Multi-Family,4.82,25251,5.745392491,C,Other,Unknown,1931,37,-122.4391545,37.7702943
1238 Walpert St,Hayward,94541,9/17/2009,6450000,Multi-Family,7,37714,0.56111169,C,Other,Masonry,1963,53,-122.074076,37.669835
646 Corbett St,San Francisco,94114,1/12/2010,6000000,Multi-Family,7.23,28887,1.351501825,B,Other,WoodFrame,1967,41,-122.443403,37.756167
1808 Oak Park Blvd,Pleasant Hill,94523,6/29/2009,5500000,Multi-Family,6.18,45748,0.700153046,C,Other,WoodFrame,1969,40,-122.0716,37.934238
2185 Bay St,San Francisco,94123,9/11/2009,5175000,Multi-Family,6.03,12438,2.653723064,B,Other,Masonry,1926,24,-122.442897,37.801669
1120 Union St,San Francisco,94109,3/5/2010,4800000,Multi-Family,5.58,15060,2.259903962,C,Good,Unknown,1915,12,-122.4178858,37.7996433
510 26th Ave,San Francisco,94121,11/10/2009,4730000,Multi-Family,5.7,24833,3.619970845,C,Good,Masonry,1926,32,-122.485565,37.7798105
1300-1326 Grant Ave,San Francisco,94133,9/18/2009,4675000,Multi-Family,6.1,15800,1.259465923,C,Other,WoodFrame,1907,14,-122.407141,37.7991124
2265 Larkin St,San Francisco,94109,9/11/2009,4650000,Multi-Family,5.4,15006,2.375870804,C,Other,WoodFrame,1923,24,-122.4209838,37.7987733
1 Cabrillo St,San Francisco,94118,10/30/2009,4480000,Multi-Family,6.12,21000,2.678571429,C,Other,Unknown,1966,23,-122.4587959,37.7753841
1306 Main St,Redwood City,94063,7/31/2009,4210000,Multi-Family,5,11868,0.949364051,C,Other,Unknown,1962,23,-122.2247065,37.4806309
2465 Chestnut St,San Francisco,94123,9/17/2009,4150000,Multi-Family,6.2,11646,1.688070735,C,Other,ReinforcedConcrete,1928,12,-122.443846,37.799531
2845 Pierce St,San Francisco,94123,5/4/2010,4100000,Multi-Family,4.9,11790,2.131236443,C,Other,Masonry,1924,12,-122.4389509,37.7963398
1550 Walnut St,Berkeley,94709,10/27/2009,4050000,Multi-Family,6.09,15171,1.777921013,C,Other,Unknown,1963,13,-122.268097,37.879492
2240 Golden Gate Ave,San Francisco,94118,11/13/2009,3910000,Multi-Family,6,13626,2.478806622,B,Other,WoodFrame,1918,18,-122.4476342,37.777789
2100 Post St,San Francisco,94115,5/28/2010,3825000,Multi-Family,5.75,14330,2.530907806,C,Other,WoodFrame,1924,18,-122.4365876,37.7849204
272-280 La Pala Dr,San Jose,95127,4/1/2010,3800000,Multi-Family,6.99,34848,0.963876749,C,Other,WoodFrame,1960,35,-121.8289198,37.3784243
1250 Vallejo St,San Francisco,94109,10/23/2009,3750000,Multi-Family,5.5,10860,1.764419171,C,Other,WoodFrame,1918,1,-122.4179776,37.7976946
1326 Palos Verdes Dr,San Mateo,94403,1/7/2010,3650000,Multi-Family,3.87,21395,0.982323232,C,Good,WoodFrame,1974,14,-122.328072,37.5315
421 Richmond Dr,Millbrae,94030,7/2/2009,3550000,Multi-Family,4.36,17724,1.181442474,C,Other,ReinforcedConcrete,1970,15,-122.401357,37.6007223
1565 Washington St,San Francisco,94109,4/2/2010,3530000,Multi-Family,5.9,9861,2.239609357,B,Other,Unknown,1909,15,-122.418911,37.793435
565 8th Ave,San Francisco,94118,7/1/2009,3500000,Multi-Family,5.5,12258,2.010167268,C,Other,Unknown,1965,15,-122.4664382,37.7777884
466 14th St,San Francisco,94103,8/20/2009,3500000,Multi-Family,6.83,15600,2.394106814,C,Other,WoodFrame,1925,24,-122.423704,37.768203
2050 Powell St,San Francisco,94133,12/8/2009,3395000,Multi-Family,5.9,8594,1.233175491,C,Other,WoodFrame,1906,14,-122.4114041,37.8038627
2090 Radio Ave,San Jose,95125,8/12/2009,3335000,Multi-Family,5.8,14992,0.677114855,C,Other,WoodFrame,1961,23,-121.890894,37.29197
2186 California St,San Francisco,94115,5/28/2010,3290625,Multi-Family,5.24,11500,1.200041741,C,Other,WoodFrame,1900,22,-122.430361,37.789645
3445 San Pablo Dam Rd,El Sobrante,94803,7/17/2009,3195000,Multi-Family,7.86,34096,0.477280999,C,Other,Unknown,1972,36,-122.323557,37.963805
3755 Fillmore St,San Francisco,94123,9/3/2009,3170000,Multi-Family,4.98,8871,2.263010204,C,Other,WoodFrame,1928,12,-122.437573,37.805223
175 Acalanes Dr,Sunnyvale,94086,12/29/2009,3150000,Multi-Family,6.8,20933,0.624101846,C,Other,WoodFrame,1964,22,-122.0574783,37.3829246
479 Buena Vista Ave E,San Francisco,94117,5/7/2010,3130000,Multi-Family,6.63,8436,2.347898692,C,Other,WoodFrame,1963,11,-122.4421239,37.7657095
2286 Jackson St,San Francisco,94115,4/29/2010,3100000,Multi-Family,4.9,8395,1.494038085,C,Other,WoodFrame,1900,9,-122.432623,37.792954
2050 Powell St,San Francisco,94133,7/24/2009,3010000,Multi-Family,6.71,8594,1.233175491,C,Other,WoodFrame,1906,14,-122.4114041,37.8038627
359 Fillmore St,San Francisco,94117,5/20/2010,3000000,Multi-Family,9.6,9216,2.716180371,C,Other,WoodFrame,1926,15,-122.4309138,37.7729033
3015 Van Ness Ave,San Francisco,94109,4/8/2010,3000000,Multi-Family,6.1,7521,1.628979857,C,Other,WoodFrame,1923,12,-122.425359,37.803437
3886 Mulberry Dr,Concord,94519,9/24/2009,2975000,Multi-Family,6.25,18084,0.441654863,C,Other,WoodFrame,1984,20,-121.9930948,37.9794028
1075-1085 Saratoga Ave,San Jose,95129,2/8/2010,2860000,Multi-Family,7.26,15568,0.490454288,C,Other,WoodFrame,1960,26,-121.9784361,37.3064857
1357 Clay St,San Francisco,94109,4/30/2010,2750000,Multi-Family,6.42,8875,2.397352782,C,Good,Unknown,1913,14,-122.4153635,37.7929182
1369 Filbert St,San Francisco,94109,3/24/2010,2665000,Multi-Family,5.3,7060,2.25127551,C,Other,Unknown,1928,7,-122.42197,37.799495
620 Eddy St,San Francisco,94109,1/12/2010,2600000,Multi-Family,8.76,19100,3.003616921,B,Other,ReinforcedConcrete,1910,35,-122.4180457,37.7834208
1616 Golden Gate Ave,San Francisco,94115,3/9/2010,2600000,Multi-Family,5.15,11124,1.785840424,C,Other,WoodFrame,1927,12,-122.4374625,37.779046
1051 Post St,San Francisco,94109,6/3/2009,2587000,Multi-Family,4.9,19860,6.617794069,B,Other,Unknown,1914,27,-122.4190541,37.7866873
24 Crystal Springs Rd,San Mateo,94402,2/2/2010,2550000,Multi-Family,7.28,8603,0.56591238,C,Other,Unknown,1972,8,-122.3283184,37.5640918
2280 Latham St,Mountain View,94040,10/8/2009,2550000,Multi-Family,4.47,10821,0.477727253,C,Other,Unknown,1963,15,-122.1045406,37.3991874
3124 Octavia St,San Francisco,94123,8/28/2009,2550000,Multi-Family,5.3,8871,2.330181245,C,Other,WoodFrame,1928,12,-122.4293055,37.8011853
1837 Oak St,San Francisco,94117,8/28/2009,2550000,Multi-Family,5,13920,2.022667829,C,Other,WoodFrame,1904,12,-122.4496715,37.771454
6116 Telegraph Ave,Oakland,94609,6/12/2009,2370000,Multi-Family,5.78,11351,1.128554385,B,Other,ReinforcedConcrete,1989,17,-122.2605157,37.847665
3054 David Ave,San Jose,95128,3/19/2010,2350000,Multi-Family,6.3,14000,0.810185185,C,Other,Masonry,1957,22,-121.94824,37.29727
1176 University Ave,Berkeley,94702,6/10/2009,2300000,Multi-Family,7.2,30212,3.662060606,C,Other,WoodFrame,1926,30,-122.29022,37.869129
1645 Mar West St,Belvedere Tiburon,94920,7/21/2009,2300000,Multi-Family,3.75,6548,0.201774929,C,Other,Unknown,1962,8,-122.4572095,37.8785898
141 Montecito Ave,Oakland,94610,1/6/2010,2297400,Multi-Family,6.54,16503,2.222326959,C,Other,Masonry,1963,19,-122.2597714,37.8119098
1068 Grand Ave,South San Francisco,94080,2/26/2010,2280000,Multi-Family,5,19478,1.277664808,C,Other,Unknown,1969,15,-122.436342,37.6608716
465 Lee St,Oakland,94610,8/27/2009,2280000,Multi-Family,6.2,25624,3.268367347,C,Other,WoodFrame,1966,16,-122.2573793,37.8095502
3050 Baker St,San Francisco,94123,9/25/2009,2250000,Multi-Family,4.27,7434,2.845005741,C,Other,Unknown,1961,6,-122.4459525,37.7992726
925 Pierce St,San Francisco,94115,8/17/2009,2025000,Multi-Family,5.68,7560,2.500826993,C,Other,WoodFrame,1912,12,-122.4353819,37.7790035
1456 Page St,San Francisco,94117,1/12/2010,2015000,Multi-Family,6.31,9420,1.744121459,C,Other,WoodFrame,1905,8,-122.4446461,37.7714898
2242 Angela Ct,Campbell,95008,6/12/2009,2010000,Multi-Family,6.8,9189,1.109112855,C,Other,WoodFrame,1965,17,-121.940267,37.271363
10249 Oasis Ct,Cupertino,95014,4/13/2010,2000000,Multi-Family,4,7303,0.609650221,C,Other,Unknown,1976,5,-122.067376,37.326375
1305 Lombard St,San Francisco,94109,7/17/2009,1975000,Multi-Family,3.53,6975,2.449087079,C,Good,ReinforcedConcrete,1924,6,-122.423101,37.801333
411 Euclid Ave,Oakland,94610,4/15/2010,1956000,Multi-Family,6,13597,2.229747458,C,Other,ReinforcedConcrete,1971,13,-122.2517467,37.8102536
407 Cornell Ave,Albany,94706,4/9/2010,1947000,Multi-Family,5.6,10754,1.536285714,C,Other,WoodFrame,1970,12,-122.2984854,37.8982059
1267 Filbert St,San Francisco,94109,8/28/2009,1925000,Multi-Family,4.9,9300,1.694606414,C,Other,WoodFrame,1911,12,-122.4201862,37.799764
1300 Powell St,San Francisco,94133,9/9/2009,1880000,Multi-Family,5.02,7350,2.592592593,C,Other,WoodFrame,1916,13,-122.409934,37.796673
440 Walnut St,San Carlos,94070,6/19/2009,1875000,Multi-Family,5,7301,0.465595306,C,Other,WoodFrame,1929,11,-122.2644572,37.5073108
1082 Post St,San Francisco,94109,1/12/2010,1875000,Multi-Family,7.41,9735,2.807903086,B,Other,Masonry,1915,19,-122.4196432,37.7871459
776 Palo Alto Ave,Mountain View,94041,11/13/2009,1869500,Multi-Family,5.58,7280,0.53913945,C,Other,WoodFrame,1958,12,-122.090341,37.389501
34 Buchanan St,San Francisco,94102,8/21/2009,1850000,Multi-Family,5.14,7380,2.118254879,C,Other,ReinforcedConcrete,1927,12,-122.4264428,37.7701629
2116 Santa Clara Ave,Alameda,94501,12/18/2009,1850000,Multi-Family,7.12,9737,0.937692604,C,Other,Masonry,1962,16,-122.248506,37.767767
319-347 Blossom Way,Hayward,94541,7/28/2009,1827000,Multi-Family,7.69,13200,0.4233483,C,Other,WoodFrame,1973,16,-122.106101,37.677401
1030 S 12th St,San Jose,95112,9/16/2009,1822500,Multi-Family,6.24,11111,0.654049918,C,Other,WoodFrame,1979,14,-121.867041,37.326233
1510 29th Ave,Oakland,94601,7/15/2009,1800000,Multi-Family,6.03,14374,0.970560432,C,Other,Masonry,1958,20,-122.227666,37.7801196
21059-21063 Royal Ave,Hayward,94541,3/23/2010,1775000,Multi-Family,7.2,13728,0.338879289,C,Other,WoodFrame,1963,18,-122.114312,37.667017
789 Carolina St,San Francisco,94107,4/9/2010,1750000,Multi-Family,5.45,6858,1.854515955,C,Other,Unknown,1962,9,-122.3997538,37.7586756
655 Hyde St,San Francisco,94109,8/28/2009,1750000,Multi-Family,7.7,7932,3.57136425,B,Good,Masonry,1913,15,-122.4168969,37.7869825
2729-2739 Bush St,San Francisco,94115,5/11/2010,1735000,Multi-Family,4.7,7224,1.400814427,C,Other,Unknown,1910,6,-122.4423226,37.7857324
